{"countries_by_slug":{"albania":{"name":"Albania","cities":[{"name":"Tirana","places":["Skanderbeg Square","Et'hem Bey Mosque","Bunk'Art 1","Bunk'Art 2","Dajti Ekspres","Pyramid of Tirana","Grand Park","National History Museum","Pazari i Ri","Blloku"]},{"name":"Durrës","places":[{"name":"Amphitheatre of Durrës","slug":"amphitheatre-of-durres","category":"Theatre","wikipediaUrl":"https://en.wikipedia.org/wiki/Amphitheatre_of_Durr%C3%ABs","lat":41.31222222222222,"lon":19.445,"wikidataId":"Q779868","image":"https://upload.wikimedia.org/wikipedia/commons/thumb/7/72/Amphitheatre_of_Durr%C3%ABs_%28by_Pudelek%29.JPG/960px-Amphitheatre_of_Durr%C3%ABs_%28by_Pudelek%29.JPG"},{"name":"Basilica of Saint Michael","slug":"basilica-of-saint-michael","category":"Church","wikipediaUrl":"https://en.wikipedia.org/wiki/Basilica_of_Saint_Michael","lat":41.30137,"lon":19.50568,"wikidataId":"Q4867373","image":"https://upload.wikimedia.org/wikipedia/commons/thumb/2/28/Basilica_of_Saint_Michael.JPG/960px-Basilica_of_Saint_Michael.JPG"},{"name":"Battle of Durazzo (1915)","slug":"battle-of-durazzo-1915","category":"Landmark","wikipediaUrl":"https://en.wikipedia.org/wiki/Battle_of_Durazzo_%281915%29","lat":41.31666667,"lon":19.45,"wikidataId":"Q838704","image":"https://upload.wikimedia.org/wikipedia/commons/1/14/HMS_Dartmouth_%281911%29.jpg"},{"name":"Battle of Dyrrhachium (48 BC)","slug":"battle-of-dyrrhachium-48-bc","category":"Landmark","wikipediaUrl":"https://en.wikipedia.org/wiki/Battle_of_Dyrrhachium_%2848_BC%29","lat":41.3167,"lon":19.45,"wikidataId":"Q525325","image":"https://upload.wikimedia.org/wikipedia/commons/thumb/1/16/Dyrrhachium_48_en.png/960px-Dyrrhachium_48_en.png"},{"name":"Durrës Expedition","slug":"durres-expedition","category":"Landmark","wikipediaUrl":"https://en.wikipedia.org/wiki/Durr%C3%ABs_Expedition","lat":41.31,"lon":19.45,"wikidataId":"Q126895342","image":"https://upload.wikimedia.org/wikipedia/commons/thumb/b/b7/Medieval_Durr%C3%ABs.jpg/960px-Medieval_Durr%C3%ABs.jpg"},{"name":"Fatih Mosque, Durrës","slug":"fatih-mosque-durres","category":"Landmark","wikipediaUrl":"https://en.wikipedia.org/wiki/Fatih_Mosque%2C_Durr%C3%ABs","lat":41.31111111111111,"lon":19.445833333333333,"wikidataId":"Q1398072","image":"https://upload.wikimedia.org/wikipedia/commons/thumb/2/26/Xhamia_e_Fatihut.jpg/960px-Xhamia_e_Fatihut.jpg"},{"name":"Great Mosque of Durrës","slug":"great-mosque-of-durres","category":"Landmark","wikipediaUrl":"https://en.wikipedia.org/wiki/Great_Mosque_of_Durr%C3%ABs","lat":41.3132,"lon":19.4455,"wikidataId":"Q18888007","image":"https://upload.wikimedia.org/wikipedia/commons/2/2d/Great_Mosque_of_Durres_2016_Albania.jpg"},{"name":"Niko Dovana Stadium","slug":"niko-dovana-stadium","category":"Landmark","wikipediaUrl":"https://en.wikipedia.org/wiki/Niko_Dovana_Stadium","lat":41.32608056,"lon":19.44985556,"wikidataId":"Q3300718","image":"https://upload.wikimedia.org/wikipedia/commons/d/da/Stadiumi_Niko_Dovana.jpg"},{"name":"Royal Villa of Durrës","slug":"royal-villa-of-durres","category":"Landmark","wikipediaUrl":"https://en.wikipedia.org/wiki/Royal_Villa_of_Durr%C3%ABs","lat":41.3147,"lon":19.4387,"wikidataId":"Q13530086","image":"https://upload.wikimedia.org/wikipedia/commons/thumb/1/19/Royal_villa_of_Durres_01.jpg/960px-Royal_villa_of_Durres_01.jpg"},{"name":"Adriatik Hotel","slug":"adriatik-hotel","category":"Landmark","wikipediaUrl":"https://en.wikipedia.org/wiki/Adriatik_Hotel","lat":41.305277777777775,"lon":19.49138888888889,"wikidataId":"Q4685628","image":"https://upload.wikimedia.org/wikipedia/commons/thumb/9/99/Hotel_Adriatiku_in_Durres_%28Albania%29.jpg/960px-Hotel_Adriatiku_in_Durres_%28Albania%29.jpg"}]},{"name":"Vlorë","places":[{"name":"Flag's Square","slug":"flags-square","category":"Square","wikipediaUrl":"https://en.wikipedia.org/wiki/Flag%27s_Square","lat":40.4707,"lon":19.4913,"wikidataId":"Q5456607","image":"https://upload.wikimedia.org/wikipedia/commons/thumb/2/2f/Sheshi_Pavar%C3%ABsia_Vlor%C3%AB.jpg/960px-Sheshi_Pavar%C3%ABsia_Vlor%C3%AB.jpg"},{"name":"Flamurtari Sports Palace","slug":"flamurtari-sports-palace","category":"Palace","wikipediaUrl":"https://en.wikipedia.org/wiki/Flamurtari_Sports_Palace","lat":40.455,"lon":19.4875,"wikidataId":"Q96378031","image":"https://upload.wikimedia.org/wikipedia/commons/thumb/5/57/Flamurtari_teuta2019.jpg/960px-Flamurtari_teuta2019.jpg"},{"name":"Independence Monument (Albania)","slug":"independence-monument-albania","category":"Monument","wikipediaUrl":"https://en.wikipedia.org/wiki/Independence_Monument_%28Albania%29","lat":40.470555555555556,"lon":19.490277777777777,"wikidataId":"Q6016129","image":"https://upload.wikimedia.org/wikipedia/commons/thumb/7/70/The_monument_of_Independence_in_Vlor%C3%AB_%28Vlora%29.jpg/960px-The_monument_of_Independence_in_Vlor%C3%AB_%28Vlora%29.jpg"},{"name":"Kaninë Castle","slug":"kanine-castle","category":"Castle","wikipediaUrl":"https://en.wikipedia.org/wiki/Kanin%C3%AB_Castle","lat":40.443,"lon":19.52,"wikidataId":"Q3299266","image":"https://upload.wikimedia.org/wikipedia/commons/thumb/7/71/Kanin%C3%AB_Castle_Entrance.png/960px-Kanin%C3%AB_Castle_Entrance.png"},{"name":"Flamurtari Stadium","slug":"flamurtari-stadium","category":"Landmark","wikipediaUrl":"https://en.wikipedia.org/wiki/Flamurtari_Stadium","lat":40.45592222,"lon":19.48898611,"wikidataId":"Q60676","image":"https://upload.wikimedia.org/wikipedia/commons/7/7c/Flamurtari-stadium_55891.jpg"},{"name":"Muradie Mosque","slug":"muradie-mosque","category":"Landmark","wikipediaUrl":"https://en.wikipedia.org/wiki/Muradie_Mosque","lat":40.469049,"lon":19.490932,"wikidataId":"Q1953480","image":"https://upload.wikimedia.org/wikipedia/commons/thumb/5/55/2011_Wlora%2C_Meczet_Murada_01.JPG/960px-2011_Wlora%2C_Meczet_Murada_01.JPG"},{"name":"Kaninë","slug":"kanine","category":"Landmark","wikipediaUrl":"https://en.wikipedia.org/wiki/Kanin%C3%AB","lat":40.439722222222215,"lon":19.51888888888889,"wikidataId":"Q1723764","image":"https://upload.wikimedia.org/wikipedia/commons/3/3c/Kanina_neue_Moschee.jpg"},{"name":"Nartë","slug":"narte","category":"Landmark","wikipediaUrl":"https://en.wikipedia.org/wiki/Nart%C3%AB","lat":40.49916667,"lon":19.45722222,"wikidataId":"Q6966426","image":"https://upload.wikimedia.org/wikipedia/commons/a/aa/Narta.jpg"},{"name":"Port of Vlorë","slug":"port-of-vlore","category":"Landmark","wikipediaUrl":"https://en.wikipedia.org/wiki/Port_of_Vlor%C3%AB","lat":40.45027777777778,"lon":19.483333333333334,"wikidataId":"Q7231302","image":"https://upload.wikimedia.org/wikipedia/commons/thumb/b/bc/Porti_i_Vlores.jpg/960px-Porti_i_Vlores.jpg"},{"name":"Bay of Vlorë","slug":"bay-of-vlore","category":"Landmark","wikipediaUrl":"https://en.wikipedia.org/wiki/Bay_of_Vlor%C3%AB","lat":40.45,"lon":19.4,"wikidataId":"Q999082","image":"https://upload.wikimedia.org/wikipedia/commons/thumb/7/7c/June_22_2013_432_HSV_Albanische_Riviera.jpg/960px-June_22_2013_432_HSV_Albanische_Riviera.jpg"}]},{"name":"Elbasan","places":[{"name":"St. Mary's Church, Elbasan","slug":"st-marys-church-elbasan","category":"Church","wikipediaUrl":"https://en.wikipedia.org/wiki/St._Mary%27s_Church%2C_Elbasan","lat":41.1155,"lon":20.0804,"wikidataId":"Q3306194","image":"https://upload.wikimedia.org/wikipedia/commons/f/fb/Elbasan%2C_kostel_Panny_Marie.jpg"},{"name":"St. Jovan Vladimir's Church","slug":"st-jovan-vladimirs-church","category":"Church","wikipediaUrl":"https://en.wikipedia.org/wiki/St._Jovan_Vladimir%27s_Church","lat":41.118333,"lon":20.0225,"wikidataId":"Q7589394","image":"https://upload.wikimedia.org/wikipedia/commons/thumb/a/a7/Shijon%2C_Albania_-_St_Jovan_Vladimir%27s_Church_2018_01.jpg/960px-Shijon%2C_Albania_-_St_Jovan_Vladimir%27s_Church_2018_01.jpg"},{"name":"St. Nicholas Church, Shelcan","slug":"st-nicholas-church-shelcan","category":"Church","wikipediaUrl":"https://en.wikipedia.org/wiki/St._Nicholas_Church%2C_Shelcan","lat":41.06113,"lon":20.13434,"wikidataId":"Q13040763","image":"https://upload.wikimedia.org/wikipedia/commons/thumb/a/a9/Shelcan_-_Kisha_e_Shen_Kollit.jpg/960px-Shelcan_-_Kisha_e_Shen_Kollit.jpg"},{"name":"Basilica on Tepe's Hill","slug":"basilica-on-tepes-hill","category":"Church","wikipediaUrl":"https://en.wikipedia.org/wiki/Basilica_on_Tepe%27s_Hill","lat":41.11,"lon":20.07,"wikidataId":"Q4867417"},{"name":"Elbasan Arena","slug":"elbasan-arena","category":"Landmark","wikipediaUrl":"https://en.wikipedia.org/wiki/Elbasan_Arena","lat":41.115875,"lon":20.09199167,"wikidataId":"Q7383667","image":"https://upload.wikimedia.org/wikipedia/commons/1/1d/Elbasan_Arena.jpg"},{"name":"King Mosque, Elbasan","slug":"king-mosque-elbasan","category":"Landmark","wikipediaUrl":"https://en.wikipedia.org/wiki/King_Mosque%2C_Elbasan","lat":41.11194444444445,"lon":20.079166666666666,"wikidataId":"Q13047913","image":"https://upload.wikimedia.org/wikipedia/commons/thumb/a/a2/Elbasan_-_Mbret-Moschee_2a_Fenster.jpg/960px-Elbasan_-_Mbret-Moschee_2a_Fenster.jpg"},{"name":"Naziresha Mosque","slug":"naziresha-mosque","category":"Landmark","wikipediaUrl":"https://en.wikipedia.org/wiki/Naziresha_Mosque","lat":41.10527777777778,"lon":20.086388888888887,"wikidataId":"Q657875","image":"https://upload.wikimedia.org/wikipedia/commons/thumb/a/a6/Elbasan_-_Naziresha_Mosque_%28by_Pudelek%29.JPG/960px-Elbasan_-_Naziresha_Mosque_%28by_Pudelek%29.JPG"},{"name":"Ad Quintum","slug":"ad-quintum","category":"Landmark","wikipediaUrl":"https://en.wikipedia.org/wiki/Ad_Quintum","lat":41.09411,"lon":20.01487,"wikidataId":"Q13046345","image":"https://upload.wikimedia.org/wikipedia/commons/thumb/5/54/Bradashesh%2C_Albania_%E2%80%93_Ad_Quintum_Thermae_04.jpg/960px-Bradashesh%2C_Albania_%E2%80%93_Ad_Quintum_Thermae_04.jpg"},{"name":"Bradashesh","slug":"bradashesh","category":"Landmark","wikipediaUrl":"https://en.wikipedia.org/wiki/Bradashesh","lat":41.1,"lon":20.01666667,"wikidataId":"Q896889","image":"https://upload.wikimedia.org/wikipedia/commons/thumb/0/03/Shijon%2C_Albania.jpg/960px-Shijon%2C_Albania.jpg"},{"name":"Funarë","slug":"funare","category":"Landmark","wikipediaUrl":"https://en.wikipedia.org/wiki/Funar%C3%AB","lat":41.2,"lon":20.06666667,"wikidataId":"Q2619017","image":"https://upload.wikimedia.org/wikipedia/commons/thumb/c/c1/Funar_4.jpg/960px-Funar_4.jpg"}]},{"name":"Shkodër","places":[{"name":"Loro Boriçi Stadium","slug":"loro-borici-stadium","category":"Landmark","wikipediaUrl":"https://en.wikipedia.org/wiki/Loro_Bori%C3%A7i_Stadium","lat":42.07,"lon":19.50666667,"wikidataId":"Q1870384","image":"https://upload.wikimedia.org/wikipedia/commons/thumb/5/58/Loro-Borici-Stadion.jpg/960px-Loro-Borici-Stadion.jpg"},{"name":"Marubi National Museum of Photography","slug":"marubi-national-museum-of-photography","category":"Museum","wikipediaUrl":"https://en.wikipedia.org/wiki/Marubi_National_Museum_of_Photography","lat":42.068594,"lon":19.51558381,"wikidataId":"Q13039148","image":"https://upload.wikimedia.org/wikipedia/commons/thumb/6/68/Muzeu_Marubi.jpg/960px-Muzeu_Marubi.jpg"},{"name":"Nativity Cathedral, Shkodër","slug":"nativity-cathedral-shkoder","category":"Cathedral","wikipediaUrl":"https://en.wikipedia.org/wiki/Nativity_Cathedral%2C_Shkod%C3%ABr","lat":42.06861111111112,"lon":19.514722222222222,"wikidataId":"Q2031794","image":"https://upload.wikimedia.org/wikipedia/commons/thumb/7/74/Skadar_Orthodox_church.jpg/960px-Skadar_Orthodox_church.jpg"},{"name":"St. Stephen's Cathedral, Shkodër","slug":"st-stephens-cathedral-shkoder","category":"Cathedral","wikipediaUrl":"https://en.wikipedia.org/wiki/St._Stephen%27s_Cathedral%2C_Shkod%C3%ABr","lat":42.06527777777777,"lon":19.52,"wikidataId":"Q1638399","image":"https://upload.wikimedia.org/wikipedia/commons/thumb/7/73/Shkoder_098.JPG/960px-Shkoder_098.JPG"},{"name":"Mesi Bridge","slug":"mesi-bridge","category":"Bridge","wikipediaUrl":"https://en.wikipedia.org/wiki/Mesi_Bridge","lat":42.1144,"lon":19.5749,"wikidataId":"Q856285","image":"https://upload.wikimedia.org/wikipedia/commons/thumb/8/8f/Ura_e_Mesiit.jpg/960px-Ura_e_Mesiit.jpg"},{"name":"Qazim Dervishi Sports Palace","slug":"qazim-dervishi-sports-palace","category":"Palace","wikipediaUrl":"https://en.wikipedia.org/wiki/Qazim_Dervishi_Sports_Palace","lat":42.0712,"lon":19.5058,"wikidataId":"Q28224904"},{"name":"\"28 Nëntori\" Gymnasium","slug":"28-nentori-gymnasium","category":"Landmark","wikipediaUrl":"https://en.wikipedia.org/wiki/%2228_N%C3%ABntori%22_Gymnasium","lat":42.0656,"lon":19.5113,"wikidataId":"Q126729091","image":"https://upload.wikimedia.org/wikipedia/commons/thumb/b/bb/Gjimnazi_28_N%C3%ABntori%2C_Shkod%C3%ABr_01.jpg/960px-Gjimnazi_28_N%C3%ABntori%2C_Shkod%C3%ABr_01.jpg"},{"name":"Ebu Beker Mosque","slug":"ebu-beker-mosque","category":"Landmark","wikipediaUrl":"https://en.wikipedia.org/wiki/Ebu_Beker_Mosque","lat":42.0675,"lon":19.51388888888889,"wikidataId":"Q1280130","image":"https://upload.wikimedia.org/wikipedia/commons/thumb/d/da/Albania._Shkod%D1%91r_%281%29_04.jpg/960px-Albania._Shkod%D1%91r_%281%29_04.jpg"},{"name":"Lake Shkodër Nature Reserve","slug":"lake-shkoder-nature-reserve","category":"Landmark","wikipediaUrl":"https://en.wikipedia.org/wiki/Lake_Shkod%C3%ABr_Nature_Reserve","lat":42.07166666666667,"lon":19.491666666666667,"wikidataId":"Q60747916","image":"https://upload.wikimedia.org/wikipedia/commons/thumb/a/a8/Lake_Skadar%2C_Shkoder_Albania_2016.jpg/960px-Lake_Skadar%2C_Shkoder_Albania_2016.jpg"},{"name":"Parrucë Mosque","slug":"parruce-mosque","category":"Landmark","wikipediaUrl":"https://en.wikipedia.org/wiki/Parruc%C3%AB_Mosque","lat":42.0654,"lon":19.5087,"wikidataId":"Q1118814","image":"https://upload.wikimedia.org/wikipedia/commons/thumb/f/f4/Parruce_Mosque_in_Shkodra.JPG/960px-Parruce_Mosque_in_Shkodra.JPG"}]},{"name":"Lushnjë","places":[{"name":"Congress of Lushnjë Museum","slug":"congress-of-lushnje-museum","category":"Museum","wikipediaUrl":"https://en.wikipedia.org/wiki/Congress_of_Lushnj%C3%AB_Museum","lat":40.941111111111105,"lon":19.7075,"wikidataId":"Q5160877","image":"https://upload.wikimedia.org/wikipedia/commons/thumb/a/a3/Kongresi_i_Lushnjes.jpg/960px-Kongresi_i_Lushnjes.jpg"},{"name":"Myzeqe","slug":"myzeqe","category":"Landmark","wikipediaUrl":"https://en.wikipedia.org/wiki/Myzeqe","lat":40.91666667,"lon":19.66666667,"wikidataId":"Q611417","image":"https://upload.wikimedia.org/wikipedia/commons/thumb/0/0d/Myzeqe.jpg/960px-Myzeqe.jpg"},{"name":"Abdurrahman Roza Haxhiu Stadium","slug":"abdurrahman-roza-haxhiu-stadium","category":"Landmark","wikipediaUrl":"https://en.wikipedia.org/wiki/Abdurrahman_Roza_Haxhiu_Stadium","lat":40.935425,"lon":19.70964444,"wikidataId":"Q4117875","image":"https://upload.wikimedia.org/wikipedia/commons/thumb/b/bb/Stadiumi_Lushnjes_%E2%80%9CA.Roza_Haxhiu%E2%80%9D.jpg/960px-Stadiumi_Lushnjes_%E2%80%9CA.Roza_Haxhiu%E2%80%9D.jpg"},{"name":"Dushk","slug":"dushk","category":"Landmark","wikipediaUrl":"https://en.wikipedia.org/wiki/Dushk","lat":41,"lon":19.66666667,"wikidataId":"Q2619591","image":"https://upload.wikimedia.org/wikipedia/commons/9/91/2024_09_29_-_Bahnhof_Dushk.jpg"},{"name":"Battle of Savra","slug":"battle-of-savra","category":"Landmark","wikipediaUrl":"https://en.wikipedia.org/wiki/Battle_of_Savra","lat":40.9,"lon":19.68333333,"wikidataId":"Q2603935"},{"name":"Golem, Fier","slug":"golem-fier","category":"Landmark","wikipediaUrl":"https://en.wikipedia.org/wiki/Golem%2C_Fier","lat":40.96666667,"lon":19.68333333,"wikidataId":"Q2712327"},{"name":"Karbunarë","slug":"karbunare","category":"Landmark","wikipediaUrl":"https://en.wikipedia.org/wiki/Karbunar%C3%AB","lat":40.916666666666664,"lon":19.716666666666665,"wikidataId":"Q2633896"},{"name":"Ballagat","slug":"ballagat","category":"Landmark","wikipediaUrl":"https://en.wikipedia.org/wiki/Ballagat","lat":41,"lon":19.76666667,"wikidataId":"Q2619301"},{"name":"Hysgjokaj","slug":"hysgjokaj","category":"Landmark","wikipediaUrl":"https://en.wikipedia.org/wiki/Hysgjokaj","lat":40.96666667,"lon":19.78333333,"wikidataId":"Q2633748"},{"name":"Krutje","slug":"krutje","category":"Landmark","wikipediaUrl":"https://en.wikipedia.org/wiki/Krutje","lat":40.86666667,"lon":19.68333333,"wikidataId":"Q2429980"}]},{"name":"Berat","places":[{"name":"Berat Castle","slug":"berat-castle","category":"Castle","wikipediaUrl":"https://en.wikipedia.org/wiki/Berat_Castle","lat":40.708,"lon":19.945,"wikidataId":"Q2968550","image":"https://upload.wikimedia.org/wikipedia/commons/thumb/5/5e/Berat_-_Festung_2a_Haupttor.jpg/960px-Berat_-_Festung_2a_Haupttor.jpg"},{"name":"Cathedral of Dormition of St. Mary (Berat)","slug":"cathedral-of-dormition-of-st-mary-berat","category":"Cathedral","wikipediaUrl":"https://en.wikipedia.org/wiki/Cathedral_of_Dormition_of_St._Mary_%28Berat%29","lat":40.7092,"lon":19.9452,"wikidataId":"Q30232175","image":"https://upload.wikimedia.org/wikipedia/commons/thumb/6/63/Church_of_St_Mary%2C_Berat%2C_Albania_2013-09_01.jpg/960px-Church_of_St_Mary%2C_Berat%2C_Albania_2013-09_01.jpg"},{"name":"Church of St. Michael (Berat)","slug":"church-of-st-michael-berat","category":"Church","wikipediaUrl":"https://en.wikipedia.org/wiki/Church_of_St._Michael_%28Berat%29","lat":40.70472222222222,"lon":19.946666666666665,"wikidataId":"Q7590658","image":"https://upload.wikimedia.org/wikipedia/commons/thumb/d/d5/BERAT_Unesco_Albania_2016.jpg/960px-BERAT_Unesco_Albania_2016.jpg"},{"name":"Church of St. Theodore (Berat)","slug":"church-of-st-theodore-berat","category":"Church","wikipediaUrl":"https://en.wikipedia.org/wiki/Church_of_St._Theodore_%28Berat%29","lat":40.7099,"lon":19.9463,"wikidataId":"Q7591833","image":"https://upload.wikimedia.org/wikipedia/commons/thumb/2/21/2011_Berat%2C_Cerkiew_%C5%9Bw._Teodora.JPG/960px-2011_Berat%2C_Cerkiew_%C5%9Bw._Teodora.JPG"},{"name":"Church of the Holy Trinity (Berat)","slug":"church-of-the-holy-trinity-berat","category":"Church","wikipediaUrl":"https://en.wikipedia.org/wiki/Church_of_the_Holy_Trinity_%28Berat%29","lat":40.70472222222222,"lon":19.946666666666665,"wikidataId":"Q15040990","image":"https://upload.wikimedia.org/wikipedia/commons/thumb/f/fb/Berat_Albania_15.jpg/960px-Berat_Albania_15.jpg"},{"name":"Gorica Bridge","slug":"gorica-bridge","category":"Bridge","wikipediaUrl":"https://en.wikipedia.org/wiki/Gorica_Bridge","lat":40.703,"lon":19.944,"wikidataId":"Q1319245","image":"https://upload.wikimedia.org/wikipedia/commons/thumb/b/b2/Gorica_Bridge%2C_Berat.JPG/960px-Gorica_Bridge%2C_Berat.JPG"},{"name":"Onufri Iconographic Museum","slug":"onufri-iconographic-museum","category":"Museum","wikipediaUrl":"https://en.wikipedia.org/wiki/Onufri_Iconographic_Museum","lat":40.7092,"lon":19.9453,"wikidataId":"Q16349422","image":"https://upload.wikimedia.org/wikipedia/commons/thumb/4/4f/Muzeu_Komb%C3%ABtar_Ikonografik_%22Onufri%22_%28Berat%29.svg/960px-Muzeu_Komb%C3%ABtar_Ikonografik_%22Onufri%22_%28Berat%29.svg.png"},{"name":"Solomon Museum","slug":"solomon-museum","category":"Museum","wikipediaUrl":"https://en.wikipedia.org/wiki/Solomon_Museum","lat":40.7064,"lon":19.9482,"wikidataId":"Q99299901","image":"https://upload.wikimedia.org/wikipedia/commons/thumb/9/9c/Solomon_Museum%2C_Berat.jpg/960px-Solomon_Museum%2C_Berat.jpg"},{"name":"St. Demetrius' Church, Drobonik","slug":"st-demetrius-church-drobonik","category":"Church","wikipediaUrl":"https://en.wikipedia.org/wiki/St._Demetrius%27_Church%2C_Drobonik","lat":40.707,"lon":19.946,"wikidataId":"Q7587747"},{"name":"Bachelors' Mosque","slug":"bachelors-mosque","category":"Landmark","wikipediaUrl":"https://en.wikipedia.org/wiki/Bachelors%27_Mosque","lat":40.704689,"lon":19.950051,"wikidataId":"Q1713447","image":"https://upload.wikimedia.org/wikipedia/commons/thumb/6/63/Berat_Mosqu%C3%A9e_Sylejman_Pasha.jpg/960px-Berat_Mosqu%C3%A9e_Sylejman_Pasha.jpg"}]},{"name":"Korçë","places":[{"name":"Andon Zako Çajupi Theatre","slug":"andon-zako-cajupi-theatre","category":"Theatre","wikipediaUrl":"https://en.wikipedia.org/wiki/Andon_Zako_%C3%87ajupi_Theatre","lat":40.6187,"lon":20.7771,"wikidataId":"Q4980130","image":"https://upload.wikimedia.org/wikipedia/commons/thumb/b/b2/Teatri_%22Andon_Zako_%C3%87ajupi%22.jpg/960px-Teatri_%22Andon_Zako_%C3%87ajupi%22.jpg"},{"name":"National Museum of Education (Albania)","slug":"national-museum-of-education-albania","category":"Museum","wikipediaUrl":"https://en.wikipedia.org/wiki/National_Museum_of_Education_%28Albania%29","lat":40.6167,"lon":20.77984,"wikidataId":"Q16349431","image":"https://upload.wikimedia.org/wikipedia/commons/thumb/6/63/Kor%C3%A7%C3%AB_04.jpg/960px-Kor%C3%A7%C3%AB_04.jpg"},{"name":"Resurrection Cathedral, Korçë","slug":"resurrection-cathedral-korce","category":"Cathedral","wikipediaUrl":"https://en.wikipedia.org/wiki/Resurrection_Cathedral%2C_Kor%C3%A7%C3%AB","lat":40.6158,"lon":20.7808,"wikidataId":"Q7316527","image":"https://upload.wikimedia.org/wikipedia/commons/thumb/0/04/Katedralja_%E2%80%9CNgjallja_e_Krishtit%E2%80%9D%2C_Kor%C3%A7%C3%AB.jpg/960px-Katedralja_%E2%80%9CNgjallja_e_Krishtit%E2%80%9D%2C_Kor%C3%A7%C3%AB.jpg"},{"name":"St. Sotir Church, Korçë","slug":"st-sotir-church-korce","category":"Church","wikipediaUrl":"https://en.wikipedia.org/wiki/St._Sotir_Church%2C_Kor%C3%A7%C3%AB","lat":40.624916666666664,"lon":20.78413888888889,"wikidataId":"Q125441699","image":"https://upload.wikimedia.org/wikipedia/commons/thumb/f/fe/St._Sotir_in_Korce.jpg/960px-St._Sotir_in_Korce.jpg"},{"name":"Holy Resurrection Church, Mborje","slug":"holy-resurrection-church-mborje","category":"Church","wikipediaUrl":"https://en.wikipedia.org/wiki/Holy_Resurrection_Church%2C_Mborje","lat":40.6058,"lon":20.8046,"wikidataId":"Q11012203","image":"https://upload.wikimedia.org/wikipedia/commons/thumb/3/38/Kisha_e_Ristozit_ne_dimer.jpg/960px-Kisha_e_Ristozit_ne_dimer.jpg"},{"name":"Bratko Museum of Oriental Art","slug":"bratko-museum-of-oriental-art","category":"Museum","wikipediaUrl":"https://en.wikipedia.org/wiki/Bratko_Museum_of_Oriental_Art","lat":40.612708,"lon":20.784628,"wikidataId":"Q4958051"},{"name":"Autonomous Province of Korçë","slug":"autonomous-province-of-korce","category":"Landmark","wikipediaUrl":"https://en.wikipedia.org/wiki/Autonomous_Province_of_Kor%C3%A7%C3%AB","lat":40.6231,"lon":20.7753,"wikidataId":"Q1028133","image":"https://upload.wikimedia.org/wikipedia/commons/thumb/7/76/Flag_of_Koritsa.svg/960px-Flag_of_Koritsa.svg.png"},{"name":"Capture of Korytsa","slug":"capture-of-korytsa","category":"Landmark","wikipediaUrl":"https://en.wikipedia.org/wiki/Capture_of_Korytsa","lat":40.614025,"lon":20.77777777777778,"wikidataId":"Q5037029","image":"https://upload.wikimedia.org/wikipedia/commons/1/14/Capture_of_Korytsa_1912_lithograph.jpg"},{"name":"Elbasan Han","slug":"elbasan-han","category":"Landmark","wikipediaUrl":"https://en.wikipedia.org/wiki/Elbasan_Han","lat":40.6182,"lon":20.775,"wikidataId":"Q5353673","image":"https://upload.wikimedia.org/wikipedia/commons/thumb/2/25/2014_Kor%C3%A7%C3%AB_%2C_Hani_i_Elbasanit_02.JPG/960px-2014_Kor%C3%A7%C3%AB_%2C_Hani_i_Elbasanit_02.JPG"},{"name":"Mirahori Mosque","slug":"mirahori-mosque","category":"Landmark","wikipediaUrl":"https://en.wikipedia.org/wiki/Mirahori_Mosque","lat":40.615833333333335,"lon":20.775277777777777,"wikidataId":"Q1586213","image":"https://upload.wikimedia.org/wikipedia/commons/e/e1/Xhamia_e_Iljaz_Bej_Mirahorit%2C_Korce.jpg"}]},{"name":"Fier","places":[{"name":"St. Cosmas' and St. Mary's Church, Kolkondas","slug":"st-cosmas-and-st-marys-church-kolkondas","category":"Church","wikipediaUrl":"https://en.wikipedia.org/wiki/St._Cosmas%27_and_St._Mary%27s_Church%2C_Kolkondas","lat":40.8028,"lon":19.5434,"wikidataId":"Q7587662","image":"https://upload.wikimedia.org/wikipedia/commons/thumb/8/85/Manastiri_i_Sh%C3%ABn_Kozmait_03.jpg/960px-Manastiri_i_Sh%C3%ABn_Kozmait_03.jpg"},{"name":"Fier Mosque","slug":"fier-mosque","category":"Landmark","wikipediaUrl":"https://en.wikipedia.org/wiki/Fier_Mosque","lat":40.7261,"lon":19.5573,"wikidataId":"Q18908057","image":"https://upload.wikimedia.org/wikipedia/commons/thumb/0/04/Fier_Qender.jpg/960px-Fier_Qender.jpg"},{"name":"Fier County","slug":"fier-county","category":"Landmark","wikipediaUrl":"https://en.wikipedia.org/wiki/Fier_County","lat":40.75,"lon":19.58333333,"wikidataId":"Q231900","image":"https://upload.wikimedia.org/wikipedia/commons/thumb/3/3e/View_towards_the_Vjosa_valley%2C_Byllis%2C_Albania_%2831560000723%29.jpg/960px-View_towards_the_Vjosa_valley%2C_Byllis%2C_Albania_%2831560000723%29.jpg"},{"name":"Apollonia (Illyria)","slug":"apollonia-illyria","category":"Landmark","wikipediaUrl":"https://en.wikipedia.org/wiki/Apollonia_%28Illyria%29","lat":40.72194444,"lon":19.4725,"wikidataId":"Q505703","image":"https://upload.wikimedia.org/wikipedia/commons/thumb/8/87/Apollonia%2C_Albania_%28by_Pudelek%29_-_Monument_of_Agonothetes.JPG/960px-Apollonia%2C_Albania_%28by_Pudelek%29_-_Monument_of_Agonothetes.JPG"},{"name":"Levan, Fier","slug":"levan-fier","category":"Landmark","wikipediaUrl":"https://en.wikipedia.org/wiki/Levan%2C_Fier","lat":40.68333333,"lon":19.48333333,"wikidataId":"Q686725","image":"https://upload.wikimedia.org/wikipedia/commons/thumb/b/b9/Levan_AL.jpg/960px-Levan_AL.jpg"},{"name":"Loni Papuçiu Stadium","slug":"loni-papuciu-stadium","category":"Landmark","wikipediaUrl":"https://en.wikipedia.org/wiki/Loni_Papu%C3%A7iu_Stadium","lat":40.72083333,"lon":19.55222222,"wikidataId":"Q6674620"},{"name":"Driza oil field","slug":"driza-oil-field","category":"Landmark","wikipediaUrl":"https://en.wikipedia.org/wiki/Driza_oil_field","lat":40.704,"lon":19.55,"wikidataId":"Q5308144"},{"name":"Dërmenas","slug":"dermenas","category":"Landmark","wikipediaUrl":"https://en.wikipedia.org/wiki/D%C3%ABrmenas","lat":40.75,"lon":19.5,"wikidataId":"Q2619185"},{"name":"Mbrostar","slug":"mbrostar","category":"Landmark","wikipediaUrl":"https://en.wikipedia.org/wiki/Mbrostar","lat":40.75,"lon":19.58333333,"wikidataId":"Q2625133"},{"name":"Muçaj","slug":"mucaj","category":"Landmark","wikipediaUrl":"https://en.wikipedia.org/wiki/Mu%C3%A7aj","lat":40.766666666666666,"lon":19.533333333333335,"wikidataId":"Q16349484"}]},{"name":"Krujë","places":[{"name":"Skanderbeg Museum","slug":"skanderbeg-museum","category":"Museum","wikipediaUrl":"https://en.wikipedia.org/wiki/Skanderbeg_Museum","lat":41.5075,"lon":19.7939,"wikidataId":"Q3303191","image":"https://upload.wikimedia.org/wikipedia/commons/d/de/Qendra._Muzeore_Kruj%C3%AB.png"},{"name":"Shtamë Pass Nature Park","slug":"shtame-pass-nature-park","category":"Park","wikipediaUrl":"https://en.wikipedia.org/wiki/Shtam%C3%AB_Pass_Nature_Park","lat":41.525,"lon":19.872222222222224,"wikidataId":"Q121292035","image":"https://upload.wikimedia.org/wikipedia/commons/thumb/3/3f/In_the_wood.jpg/960px-In_the_wood.jpg"},{"name":"Bazaar Mosque","slug":"bazaar-mosque","category":"Landmark","wikipediaUrl":"https://en.wikipedia.org/wiki/Bazaar_Mosque","lat":41.509666,"lon":19.794523,"wikidataId":"Q809778","image":"https://upload.wikimedia.org/wikipedia/commons/thumb/7/73/A_mosque_in_Kruj%C3%AB.JPG/960px-A_mosque_in_Kruj%C3%AB.JPG"},{"name":"Dollma Tekke","slug":"dollma-tekke","category":"Landmark","wikipediaUrl":"https://en.wikipedia.org/wiki/Dollma_Tekke","lat":41.5061,"lon":19.7928,"wikidataId":"Q7701412","image":"https://upload.wikimedia.org/wikipedia/commons/thumb/5/5f/Pamje_e_jashtme_nga_Teqeja_e_Dollmes%2C_Kruje.JPG/960px-Pamje_e_jashtme_nga_Teqeja_e_Dollmes%2C_Kruje.JPG"},{"name":"Fethiye Mosque (Krujë)","slug":"fethiye-mosque-kruje","category":"Landmark","wikipediaUrl":"https://en.wikipedia.org/wiki/Fethiye_Mosque_%28Kruj%C3%AB%29","lat":41.50728,"lon":19.79365,"wikidataId":"Q26133556","image":"https://upload.wikimedia.org/wikipedia/commons/thumb/a/ae/Fethiye_Mosque_minaret.jpg/960px-Fethiye_Mosque_minaret.jpg"},{"name":"Fortress of Krujë","slug":"fortress-of-kruje","category":"Castle","wikipediaUrl":"https://en.wikipedia.org/wiki/Fortress_of_Kruj%C3%AB","lat":41.50694444,"lon":19.79388889,"wikidataId":"Q1409023","image":"https://upload.wikimedia.org/wikipedia/commons/thumb/6/65/Kalaja_e_Krujes_8.jpg/960px-Kalaja_e_Krujes_8.jpg"},{"name":"Kastrioti Stadium","slug":"kastrioti-stadium","category":"Landmark","wikipediaUrl":"https://en.wikipedia.org/wiki/Kastrioti_Stadium","lat":41.51211111,"lon":19.78672778,"wikidataId":"Q6374836","image":"https://upload.wikimedia.org/wikipedia/commons/9/92/Kruja%2C_Lower_Town_%28cropped%2C_Stadium%29.jpg"},{"name":"Siege of Krujë (1450)","slug":"siege-of-kruje-1450","category":"Landmark","wikipediaUrl":"https://en.wikipedia.org/wiki/Siege_of_Kruj%C3%AB_%281450%29","lat":41.5075,"lon":19.795,"wikidataId":"Q73670","image":"https://upload.wikimedia.org/wikipedia/commons/1/16/Rrethimi_i_pare_I_krujes_1449-50.png"},{"name":"Siege of Krujë (1466–1467)","slug":"siege-of-kruje-14661467","category":"Landmark","wikipediaUrl":"https://en.wikipedia.org/wiki/Siege_of_Kruj%C3%AB_%281466%E2%80%931467%29","lat":41.5075,"lon":19.795,"wikidataId":"Q960449","image":"https://upload.wikimedia.org/wikipedia/commons/thumb/b/b1/Second_Siege_of_Kruj%C3%AB_1466.png/960px-Second_Siege_of_Kruj%C3%AB_1466.png"},{"name":"Albanopolis","slug":"albanopolis","category":"Landmark","wikipediaUrl":"https://en.wikipedia.org/wiki/Albanopolis","lat":41.47527778,"lon":19.77638889,"wikidataId":"Q2401418","image":"https://upload.wikimedia.org/wikipedia/commons/thumb/3/38/Zg%C3%ABrdhesh_map_%28en%29.png/960px-Zg%C3%ABrdhesh_map_%28en%29.png"}]}]},"argentina":{"name":"Argentina","cities":[{"name":"Buenos Aires","places":["La Boca","Recoleta Cemetery","Plaza de Mayo","Teatro Colón","Palermo Parks","San Telmo Market","Puerto Madero","MALBA","Caminito","Casa Rosada (view)"]},{"name":"Mendoza","places":["Wine Bodegas","Plaza Independencia","Parque General San Martín","Andes Day Trips","Aconcagua Provincial Park","Mercado Central","Peatonal Sarmiento","Museo del Área Fundacional","Cacheuta Hot Springs","Uco Valley"]},{"name":"Bariloche","places":["Nahuel Huapi Lake","Cerro Catedral","Circuito Chico","Cerro Campanario","Llao Llao","Chocolate Shops","Colonia Suiza","Refugio Frey Hike","Isla Victoria","Patagonia Breweries"]}]},"armenia":{"name":"Armenia","cities":[{"name":"Yerevan","places":["Republic Square","Cascade Complex","Matenadaran","Vernissage Market","Blue Mosque","Tsitsernakaberd","Opera House","Erebuni Fortress","History Museum of Armenia","Garni & Geghard (day trip)"]}]},"australia":{"name":"Australia","cities":[{"name":"Sydney","places":["Sydney Opera House","Harbour Bridge","Bondi Beach","The Rocks","Royal Botanic Garden","Taronga Zoo","Darling Harbour","Manly Beach (ferry)","Sydney Tower Eye","Blue Mountains (day trip)"]},{"name":"Melbourne","places":["Federation Square","Flinders Street Station","Royal Botanic Gardens","National Gallery of Victoria","Queen Victoria Market","Laneways & Street Art","St Kilda Beach","Melbourne Museum","Yarra River Promenade","Great Ocean Road (day trip)"]},{"name":"Brisbane","places":["South Bank Parklands","Lone Pine Koala Sanctuary","Story Bridge (view)","Queensland Art Gallery","Roma Street Parkland","Howard Smith Wharves","Mount Coot-tha Lookout","City Botanic Gardens","Eat Street Northshore","Moreton Island (day trip)"]},{"name":"Perth","places":["Kings Park","Elizabeth Quay","Fremantle","Cottesloe Beach","Perth Mint","Swan River Cruise","Rottnest Island (day trip)","Art Gallery of Western Australia","Perth Zoo","Scarborough Beach"]},{"name":"Adelaide","places":["Adelaide Central Market","Botanic Garden","North Terrace Museums","Glenelg Beach","Adelaide Oval (tour)","Hahndorf (day trip)","Barossa Valley (day trip)","Victoria Square","Rundle Mall","Cleland Wildlife Park"]}]},"austria":{"name":"Austria","cities":[{"name":"Vienna","places":["Schönbrunn Palace","St Stephen’s Cathedral","Belvedere Palace","Hofburg","Vienna State Opera","MuseumsQuartier","Prater","Naschmarkt","Albertina","Danube Island"]},{"name":"Salzburg","places":["Hohensalzburg Fortress","Mirabell Palace","Salzburg Old Town","Mozart’s Birthplace","Getreidegasse","Salzach River","Hellbrunn Palace","Sound of Music Sites","Salzburg Cathedral","Untersberg (nearby)"]},{"name":"Innsbruck","places":["Golden Roof","Nordkette Cable Car","Old Town","Ambras Castle","Bergisel Ski Jump","Maria-Theresien-Strasse","Hofkirche","Alpine Zoo","Swarovski Crystal Worlds (nearby)","Hungerburg Funicular"]},{"name":"Graz","places":[{"name":"Pilgrimage Church Maria Straßengel","slug":"pilgrimage-church-maria-straßengel","category":"Church","wikipediaUrl":"https://en.wikipedia.org/wiki/Pilgrimage_Church_Maria_Stra%C3%9Fengel","lat":47.11666667,"lon":15.35,"wikidataId":"Q2542885","image":"https://upload.wikimedia.org/wikipedia/commons/thumb/9/95/Pilgrimage_Church_Maria_Stra%C3%9Fengel.JPG/960px-Pilgrimage_Church_Maria_Stra%C3%9Fengel.JPG"},{"name":"Franciscan Church, Graz","slug":"franciscan-church-graz","category":"Church","wikipediaUrl":"https://en.wikipedia.org/wiki/Franciscan_Church%2C_Graz","lat":47.070483333333335,"lon":15.436780555555556,"wikidataId":"Q1450322","image":"https://upload.wikimedia.org/wikipedia/commons/thumb/0/09/FranziskanerkircheGraz20070406.jpg/960px-FranziskanerkircheGraz20070406.jpg"},{"name":"Graz Cathedral","slug":"graz-cathedral","category":"Cathedral","wikipediaUrl":"https://en.wikipedia.org/wiki/Graz_Cathedral","lat":47.072,"lon":15.4422,"wikidataId":"Q262563","image":"https://upload.wikimedia.org/wikipedia/commons/thumb/1/13/Graz_-_Dom.jpg/960px-Graz_-_Dom.jpg"},{"name":"Universalmuseum Joanneum","slug":"universalmuseum-joanneum","category":"Museum","wikipediaUrl":"https://en.wikipedia.org/wiki/Universalmuseum_Joanneum","lat":47.06861111111112,"lon":15.4375,"wikidataId":"Q623017","image":"https://upload.wikimedia.org/wikipedia/commons/thumb/1/1d/Graz_Altes_Joanneum.jpg/960px-Graz_Altes_Joanneum.jpg"},{"name":"Eggenberg Palace, Graz","slug":"eggenberg-palace-graz","category":"Palace","wikipediaUrl":"https://en.wikipedia.org/wiki/Eggenberg_Palace%2C_Graz","lat":47.07395,"lon":15.39137,"wikidataId":"Q203797","image":"https://upload.wikimedia.org/wikipedia/commons/thumb/6/6e/19-01-27-Schlo%C3%9F-Eggenberg-Graz-RalfR-DJI_0363.jpg/960px-19-01-27-Schlo%C3%9F-Eggenberg-Graz-RalfR-DJI_0363.jpg"},{"name":"Mariatrost Basilica","slug":"mariatrost-basilica","category":"Church","wikipediaUrl":"https://en.wikipedia.org/wiki/Mariatrost_Basilica","lat":47.10722222,"lon":15.49138889,"wikidataId":"Q675795","image":"https://upload.wikimedia.org/wikipedia/commons/thumb/1/16/Graz_-_Basilika_Mariatrost_%28a%29.JPG/960px-Graz_-_Basilika_Mariatrost_%28a%29.JPG"},{"name":"Tramway Museum Graz","slug":"tramway-museum-graz","category":"Museum","wikipediaUrl":"https://en.wikipedia.org/wiki/Tramway_Museum_Graz","lat":47.10561,"lon":15.488931,"wikidataId":"Q2448625","image":"https://upload.wikimedia.org/wikipedia/commons/thumb/3/32/Tramway_Museum_Graz_Front.JPG/960px-Tramway_Museum_Graz_Front.JPG"},{"name":"Graz Airport","slug":"graz-airport","category":"Landmark","wikipediaUrl":"https://en.wikipedia.org/wiki/Graz_Airport","lat":46.99305556,"lon":15.43916667,"wikidataId":"Q178162","image":"https://upload.wikimedia.org/wikipedia/commons/thumb/4/4c/Aerial_image_of_the_Graz_airport.jpg/960px-Aerial_image_of_the_Graz_airport.jpg"},{"name":"Gösting Castle","slug":"gosting-castle","category":"Castle","wikipediaUrl":"https://en.wikipedia.org/wiki/G%C3%B6sting_Castle","lat":47.10388888888889,"lon":15.381111111111112,"wikidataId":"Q1015311","image":"https://upload.wikimedia.org/wikipedia/commons/thumb/5/5f/Graz_-_Burgruine_G%C3%B6sting.JPG/960px-Graz_-_Burgruine_G%C3%B6sting.JPG"},{"name":"Steiermärkische Sparkasse","slug":"steiermarkische-sparkasse","category":"Park","wikipediaUrl":"https://en.wikipedia.org/wiki/Steierm%C3%A4rkische_Sparkasse","lat":47.06916666666667,"lon":15.436944444444444,"wikidataId":"Q1555572"}]},{"name":"Linz","places":[{"name":"Donauparkstadion","slug":"donauparkstadion","category":"Park","wikipediaUrl":"https://en.wikipedia.org/wiki/Donauparkstadion","lat":48.316371,"lon":14.298862,"wikidataId":"Q15055832","image":"https://upload.wikimedia.org/wikipedia/commons/thumb/c/c9/Donauparkstadion_Linz_Er%C3%B6ffnung_20230705_135921.jpg/960px-Donauparkstadion_Linz_Er%C3%B6ffnung_20230705_135921.jpg"},{"name":"Führermuseum","slug":"fuhrermuseum","category":"Museum","wikipediaUrl":"https://en.wikipedia.org/wiki/F%C3%BChrermuseum","lat":48.290139,"lon":14.291981,"wikidataId":"Q475667","image":"https://upload.wikimedia.org/wikipedia/commons/a/af/Bundesarchiv_Bild_146-1990-073-26%2C_M%C3%BCnchen%2C_Haus_der_Deutschen_Kunst_crop.jpg"},{"name":"Lentos Art Museum","slug":"lentos-art-museum","category":"Museum","wikipediaUrl":"https://en.wikipedia.org/wiki/Lentos_Art_Museum","lat":48.308611111111105,"lon":14.289444444444444,"wikidataId":"Q686531","image":"https://upload.wikimedia.org/wikipedia/commons/thumb/c/ca/Linz_-_Donaul%C3%A4nde_-_Lentos-Kunstmuseum.jpg/960px-Linz_-_Donaul%C3%A4nde_-_Lentos-Kunstmuseum.jpg"},{"name":"Linz Castle (Austria)","slug":"linz-castle-austria","category":"Castle","wikipediaUrl":"https://en.wikipedia.org/wiki/Linz_Castle_%28Austria%29","lat":48.3057,"lon":14.2823,"wikidataId":"Q686508","image":"https://upload.wikimedia.org/wikipedia/commons/thumb/6/6a/Linzcastle20050926.jpg/960px-Linzcastle20050926.jpg"},{"name":"Linz State Theatre","slug":"linz-state-theatre","category":"Theatre","wikipediaUrl":"https://en.wikipedia.org/wiki/Linz_State_Theatre","lat":48.30361111111111,"lon":14.283333333333333,"wikidataId":"Q1802665","image":"https://upload.wikimedia.org/wikipedia/commons/thumb/3/3f/Linz_Landestheater_1.jpg/960px-Linz_Landestheater_1.jpg"},{"name":"New Cathedral, Linz","slug":"new-cathedral-linz","category":"Cathedral","wikipediaUrl":"https://en.wikipedia.org/wiki/New_Cathedral%2C_Linz","lat":48.30055556,"lon":14.28555556,"wikidataId":"Q257481","image":"https://upload.wikimedia.org/wikipedia/commons/thumb/6/6e/Linz-cathedrale.jpg/960px-Linz-cathedrale.jpg"},{"name":"Old Cathedral, Linz","slug":"old-cathedral-linz","category":"Cathedral","wikipediaUrl":"https://en.wikipedia.org/wiki/Old_Cathedral%2C_Linz","lat":48.305014,"lon":14.287965,"wikidataId":"Q437807","image":"https://upload.wikimedia.org/wikipedia/commons/thumb/c/cd/Linz_-_Blick_vom_Schloss_zum_Alten_Dom.jpg/960px-Linz_-_Blick_vom_Schloss_zum_Alten_Dom.jpg"},{"name":"Power Tower (Linz)","slug":"power-tower-linz","category":"Landmark","wikipediaUrl":"https://en.wikipedia.org/wiki/Power_Tower_%28Linz%29","lat":48.29333333333333,"lon":14.290555555555555,"wikidataId":"Q2107000","image":"https://upload.wikimedia.org/wikipedia/commons/thumb/8/87/Power_Tower_ganz.jpg/960px-Power_Tower_ganz.jpg"},{"name":"Ursuline Church of St. Michael","slug":"ursuline-church-of-st-michael","category":"Church","wikipediaUrl":"https://en.wikipedia.org/wiki/Ursuline_Church_of_St._Michael","lat":48.302469,"lon":14.289736,"wikidataId":"Q2501981","image":"https://upload.wikimedia.org/wikipedia/commons/thumb/0/0a/Ursulinenkirche_Linz_I.jpg/960px-Ursulinenkirche_Linz_I.jpg"},{"name":"Skulpturenpark Artpark","slug":"skulpturenpark-artpark","category":"Park","wikipediaUrl":"https://en.wikipedia.org/wiki/Skulpturenpark_Artpark","lat":48.29194444444444,"lon":14.304166666666667,"wikidataId":"Q1479755","image":"https://upload.wikimedia.org/wikipedia/commons/7/72/Artpark_Linz_2006.jpg"}]},{"name":"Klagenfurt am Wörthersee","places":[{"name":"Eboardmuseum","slug":"eboardmuseum","category":"Museum","wikipediaUrl":"https://en.wikipedia.org/wiki/Eboardmuseum","lat":46.6166,"lon":14.305,"wikidataId":"Q1279967","image":"https://upload.wikimedia.org/wikipedia/commons/thumb/f/f0/Eboardmuseum_1.JPG/960px-Eboardmuseum_1.JPG"},{"name":"Klagenfurt Cathedral","slug":"klagenfurt-cathedral","category":"Cathedral","wikipediaUrl":"https://en.wikipedia.org/wiki/Klagenfurt_Cathedral","lat":46.623991,"lon":14.312207,"wikidataId":"Q261423","image":"https://upload.wikimedia.org/wikipedia/commons/thumb/2/29/Klagenfurt_Domplatz_Kirche_22022007_01.jpg/960px-Klagenfurt_Domplatz_Kirche_22022007_01.jpg"},{"name":"State Museum for Carinthia","slug":"state-museum-for-carinthia","category":"Museum","wikipediaUrl":"https://en.wikipedia.org/wiki/State_Museum_for_Carinthia","lat":46.62106,"lon":14.31245,"wikidataId":"Q87404503","image":"https://upload.wikimedia.org/wikipedia/commons/thumb/9/96/Klagenfurt_Museumgasse_2_Landesmuseum_S-Seite_14082016_3659.jpg/960px-Klagenfurt_Museumgasse_2_Landesmuseum_S-Seite_14082016_3659.jpg"},{"name":"Annabichl Castle","slug":"annabichl-castle","category":"Castle","wikipediaUrl":"https://en.wikipedia.org/wiki/Annabichl_Castle","lat":46.656388888888884,"lon":14.311666666666667,"wikidataId":"Q2240044","image":"https://upload.wikimedia.org/wikipedia/commons/thumb/7/75/Schloss_annabichl.jpg/960px-Schloss_annabichl.jpg"},{"name":"Maria Saal Cathedral","slug":"maria-saal-cathedral","category":"Cathedral","wikipediaUrl":"https://en.wikipedia.org/wiki/Maria_Saal_Cathedral","lat":46.6811,"lon":14.3463,"wikidataId":"Q877285","image":"https://upload.wikimedia.org/wikipedia/commons/thumb/f/f0/Maria_Saal_Pfarr-und_Wallfahrtskirche_Mari%C3%A4_Himmelfahrt_28052015_4203.jpg/960px-Maria_Saal_Pfarr-und_Wallfahrtskirche_Mari%C3%A4_Himmelfahrt_28052015_4203.jpg"},{"name":"City-Arkaden","slug":"city-arkaden","category":"Landmark","wikipediaUrl":"https://en.wikipedia.org/wiki/City-Arkaden","lat":46.6275,"lon":14.309444444444445,"wikidataId":"Q1093765","image":"https://upload.wikimedia.org/wikipedia/commons/thumb/b/b5/City_Arkaden_Klagenfurt.JPG/960px-City_Arkaden_Klagenfurt.JPG"},{"name":"Diocese of Gurk-Klagenfurt","slug":"diocese-of-gurk-klagenfurt","category":"Landmark","wikipediaUrl":"https://en.wikipedia.org/wiki/Diocese_of_Gurk-Klagenfurt","lat":46.6221,"lon":14.3094,"wikidataId":"Q254887","image":"https://upload.wikimedia.org/wikipedia/commons/thumb/2/29/Klagenfurt_Domplatz_Kirche_22022007_01.jpg/960px-Klagenfurt_Domplatz_Kirche_22022007_01.jpg"},{"name":"Federal Gymnasium for Slovenes","slug":"federal-gymnasium-for-slovenes","category":"Landmark","wikipediaUrl":"https://en.wikipedia.org/wiki/Federal_Gymnasium_for_Slovenes","lat":46.62388888888889,"lon":14.323333333333332,"wikidataId":"Q15793052","image":"https://upload.wikimedia.org/wikipedia/commons/thumb/e/ef/49_Klagenfurt_Sankt_Peter_Prof._Janezic_Platz_1_Slowenisches_Gymnasium_31032009_91.jpg/960px-49_Klagenfurt_Sankt_Peter_Prof._Janezic_Platz_1_Slowenisches_Gymnasium_31032009_91.jpg"},{"name":"HTL1 Lastenstrasse","slug":"htl1-lastenstrasse","category":"Landmark","wikipediaUrl":"https://en.wikipedia.org/wiki/HTL1_Lastenstrasse","lat":46.62,"lon":14.3163,"wikidataId":"Q1566063","image":"https://upload.wikimedia.org/wikipedia/commons/thumb/9/93/HTL1_Lastenstra%C3%9Fe.jpg/960px-HTL1_Lastenstra%C3%9Fe.jpg"},{"name":"Klagenfurt","slug":"klagenfurt","category":"Landmark","wikipediaUrl":"https://en.wikipedia.org/wiki/Klagenfurt","lat":46.61666667,"lon":14.3,"wikidataId":"Q41753","image":"https://upload.wikimedia.org/wikipedia/commons/thumb/a/ab/Klagenfurt_Villacher_Vorstadt_Kreuzbergl-Stadtblick_20102015_8306.jpg/960px-Klagenfurt_Villacher_Vorstadt_Kreuzbergl-Stadtblick_20102015_8306.jpg"}]},{"name":"Villach","places":[{"name":"Landskron Castle (Carinthia)","slug":"landskron-castle-carinthia","category":"Castle","wikipediaUrl":"https://en.wikipedia.org/wiki/Landskron_Castle_%28Carinthia%29","lat":46.6423638889,"lon":13.8969388889,"wikidataId":"Q700639","image":"https://upload.wikimedia.org/wikipedia/commons/thumb/9/90/Villach_-_Burg_Landskron_%28b%29.JPG/960px-Villach_-_Burg_Landskron_%28b%29.JPG"},{"name":"Aichelberg Castle","slug":"aichelberg-castle","category":"Castle","wikipediaUrl":"https://en.wikipedia.org/wiki/Aichelberg_Castle","lat":46.6444,"lon":13.9597,"wikidataId":"Q2054479","image":"https://upload.wikimedia.org/wikipedia/commons/thumb/c/c0/Umberg_Ruine_Aichelberg_innen_21012007_43.jpg/960px-Umberg_Ruine_Aichelberg_innen_21012007_43.jpg"},{"name":"Kremlhoftheater Villach","slug":"kremlhoftheater-villach","category":"Landmark","wikipediaUrl":"https://en.wikipedia.org/wiki/Kremlhoftheater_Villach","lat":46.607896,"lon":13.853067,"wikidataId":"Q1725432","image":"https://upload.wikimedia.org/wikipedia/commons/3/37/Kremlhoftheater.jpg"},{"name":"Stadthalle (Villach)","slug":"stadthalle-villach","category":"Landmark","wikipediaUrl":"https://en.wikipedia.org/wiki/Stadthalle_%28Villach%29","lat":46.61388889,"lon":13.83138889,"wikidataId":"Q663743","image":"https://upload.wikimedia.org/wikipedia/commons/thumb/6/65/Villach_-_Stadthalle.JPG/960px-Villach_-_Stadthalle.JPG"},{"name":"Villach Friary","slug":"villach-friary","category":"Landmark","wikipediaUrl":"https://en.wikipedia.org/wiki/Villach_Friary","lat":46.61625,"lon":13.849430555555557,"wikidataId":"Q1450376","image":"https://upload.wikimedia.org/wikipedia/commons/thumb/2/22/Villach_Nikolaikirche_30012011_866.jpg/960px-Villach_Nikolaikirche_30012011_866.jpg"},{"name":"Villach Hauptbahnhof","slug":"villach-hauptbahnhof","category":"Landmark","wikipediaUrl":"https://en.wikipedia.org/wiki/Villach_Hauptbahnhof","lat":46.61833333333333,"lon":13.848333333333334,"wikidataId":"Q699533","image":"https://upload.wikimedia.org/wikipedia/commons/thumb/1/14/Villach_Hbf_%282016%29.jpg/960px-Villach_Hbf_%282016%29.jpg"},{"name":"Burgruine Federaun","slug":"burgruine-federaun","category":"Landmark","wikipediaUrl":"https://en.wikipedia.org/wiki/Burgruine_Federaun","lat":46.57016667,"lon":13.81208889,"wikidataId":"Q1015284","image":"https://upload.wikimedia.org/wikipedia/commons/thumb/3/32/Villach_Unterfederaun_Burgruine_Federaun_20102008_21.jpg/960px-Villach_Unterfederaun_Burgruine_Federaun_20102008_21.jpg"},{"name":"Finkenstein am Faaker See","slug":"finkenstein-am-faaker-see","category":"Landmark","wikipediaUrl":"https://en.wikipedia.org/wiki/Finkenstein_am_Faaker_See","lat":46.56666667,"lon":13.86666667,"wikidataId":"Q662080","image":"https://upload.wikimedia.org/wikipedia/commons/thumb/2/25/Finkenstein_Faak_am_See_Faaker_See_18052007_8302.jpg/960px-Finkenstein_Faak_am_See_Faaker_See_18052007_8302.jpg"},{"name":"Gail (river)","slug":"gail-river","category":"Landmark","wikipediaUrl":"https://en.wikipedia.org/wiki/Gail_%28river%29","lat":46.60638889,"lon":13.88722222,"wikidataId":"Q876978","image":"https://upload.wikimedia.org/wikipedia/commons/thumb/e/e9/Gail_bei_Dellach.JPG/960px-Gail_bei_Dellach.JPG"},{"name":"Silbersee (Carinthia)","slug":"silbersee-carinthia","category":"Landmark","wikipediaUrl":"https://en.wikipedia.org/wiki/Silbersee_%28Carinthia%29","lat":46.60916666666667,"lon":13.90638888888889,"wikidataId":"Q2285898","image":"https://upload.wikimedia.org/wikipedia/commons/thumb/0/0d/Silbersee.JPG/960px-Silbersee.JPG"}]},{"name":"Dornbirn","places":[{"name":"FLATZ Museum","slug":"flatz-museum","category":"Museum","wikipediaUrl":"https://en.wikipedia.org/wiki/FLATZ_Museum","lat":47.4117,"lon":9.7426,"wikidataId":"Q85760256","image":"https://upload.wikimedia.org/wikipedia/commons/f/f2/Flatz-936-800.jpg"},{"name":"Messepark","slug":"messepark","category":"Park","wikipediaUrl":"https://en.wikipedia.org/wiki/Messepark","lat":47.41138888888889,"lon":9.712499999999999,"wikidataId":"Q1924108","image":"https://upload.wikimedia.org/wikipedia/commons/thumb/c/c0/Messepark_Dornbirn.JPG/960px-Messepark_Dornbirn.JPG"},{"name":"Neu-Ems Castle","slug":"neu-ems-castle","category":"Castle","wikipediaUrl":"https://en.wikipedia.org/wiki/Neu-Ems_Castle","lat":47.36833333333333,"lon":9.705555555555556,"wikidataId":"Q835417","image":"https://upload.wikimedia.org/wikipedia/commons/thumb/c/c9/SchlossGlopper1.JPG/960px-SchlossGlopper1.JPG"},{"name":"Rolls-Royce Museum","slug":"rolls-royce-museum","category":"Museum","wikipediaUrl":"https://en.wikipedia.org/wiki/Rolls-Royce_Museum","lat":47.39055555555556,"lon":9.776944444444444,"wikidataId":"Q2164265","image":"https://upload.wikimedia.org/wikipedia/commons/thumb/9/9f/Rolls-Royce_Museum_Dornbirn_058.jpg/960px-Rolls-Royce_Museum_Dornbirn_058.jpg"},{"name":"Angelika Kauffmann Museum","slug":"angelika-kauffmann-museum","category":"Museum","wikipediaUrl":"https://en.wikipedia.org/wiki/Angelika_Kauffmann_Museum","lat":47.4158,"lon":9.8511,"wikidataId":"Q18694541","image":"https://upload.wikimedia.org/wikipedia/commons/thumb/4/4b/Schwarzenberg-Brand_34-Angelika_Kaufmann_Museum-01ASD.jpg/960px-Schwarzenberg-Brand_34-Angelika_Kaufmann_Museum-01ASD.jpg"},{"name":"Parish church of St. Gallus, Bregenz","slug":"parish-church-of-st-gallus-bregenz","category":"Church","wikipediaUrl":"https://en.wikipedia.org/wiki/Parish_church_of_St._Gallus%2C_Bregenz","lat":47.49843,"lon":9.74804,"wikidataId":"Q1720165","image":"https://upload.wikimedia.org/wikipedia/commons/thumb/e/e6/Bregenz_asv2022-10_img33_Pfarrkirche_StGallus.jpg/960px-Bregenz_asv2022-10_img33_Pfarrkirche_StGallus.jpg"},{"name":"Roman Theatre (Bregenz)","slug":"roman-theatre-bregenz","category":"Theatre","wikipediaUrl":"https://en.wikipedia.org/wiki/Roman_Theatre_%28Bregenz%29","lat":47.500461,"lon":9.747879,"wikidataId":"Q104706029","image":"https://upload.wikimedia.org/wikipedia/commons/thumb/d/dc/Brigantium-Plan_2017.jpg/960px-Brigantium-Plan_2017.jpg"},{"name":"Parish Church Hatlerdorf","slug":"parish-church-hatlerdorf","category":"Church","wikipediaUrl":"https://en.wikipedia.org/wiki/Parish_Church_Hatlerdorf","lat":47.40198,"lon":9.73856,"wikidataId":"Q2327861"},{"name":"Schwarzach, Vorarlberg","slug":"schwarzach-vorarlberg","category":"Landmark","wikipediaUrl":"https://en.wikipedia.org/wiki/Schwarzach%2C_Vorarlberg","lat":47.41666667,"lon":9.75,"wikidataId":"Q701709","image":"https://upload.wikimedia.org/wikipedia/commons/thumb/7/71/Schwarzach_2.JPG/960px-Schwarzach_2.JPG"},{"name":"Stadion Birkenwiese","slug":"stadion-birkenwiese","category":"Landmark","wikipediaUrl":"https://en.wikipedia.org/wiki/Stadion_Birkenwiese","lat":47.41647,"lon":9.72409,"wikidataId":"Q2326052","image":"https://upload.wikimedia.org/wikipedia/commons/thumb/7/77/Stadion_Birkenwiese_Dornbirn.JPG/960px-Stadion_Birkenwiese_Dornbirn.JPG"}]},{"name":"Wiener Neustadt","places":[{"name":"St. George's Cathedral, Wiener Neustadt","slug":"st-georges-cathedral-wiener-neustadt","category":"Cathedral","wikipediaUrl":"https://en.wikipedia.org/wiki/St._George%27s_Cathedral%2C_Wiener_Neustadt","lat":47.8102,"lon":16.2451,"wikidataId":"Q2318602","image":"https://upload.wikimedia.org/wikipedia/commons/thumb/0/0e/WappenwandBurgWienerNeustadt.11A.JPG/960px-WappenwandBurgWienerNeustadt.11A.JPG"},{"name":"Wiener Neustadt Cathedral","slug":"wiener-neustadt-cathedral","category":"Cathedral","wikipediaUrl":"https://en.wikipedia.org/wiki/Wiener_Neustadt_Cathedral","lat":47.815,"lon":16.2425,"wikidataId":"Q1236623","image":"https://upload.wikimedia.org/wikipedia/commons/thumb/7/72/Wiener_Neustadt_-_Dom_%281%29.JPG/960px-Wiener_Neustadt_-_Dom_%281%29.JPG"},{"name":"Burg Wiener Neustadt","slug":"burg-wiener-neustadt","category":"Landmark","wikipediaUrl":"https://en.wikipedia.org/wiki/Burg_Wiener_Neustadt","lat":47.8099,"lon":16.2459,"wikidataId":"Q664071","image":"https://upload.wikimedia.org/wikipedia/commons/thumb/5/5e/Theresianische_Militaerakademie_DSC_6487w.jpg/960px-Theresianische_Militaerakademie_DSC_6487w.jpg"},{"name":"Daun Barracks","slug":"daun-barracks","category":"Landmark","wikipediaUrl":"https://en.wikipedia.org/wiki/Daun_Barracks","lat":47.8084,"lon":16.2454,"wikidataId":"Q1172980","image":"https://upload.wikimedia.org/wikipedia/commons/thumb/4/4b/WrNeustadt_Daun-Kaserne.JPG/960px-WrNeustadt_Daun-Kaserne.JPG"},{"name":"Military Ordinariate of Austria","slug":"military-ordinariate-of-austria","category":"Landmark","wikipediaUrl":"https://en.wikipedia.org/wiki/Military_Ordinariate_of_Austria","lat":47.80888888888889,"lon":16.244722222222222,"wikidataId":"Q303911","image":"https://upload.wikimedia.org/wikipedia/commons/thumb/8/81/WrNeustadtMilak030822.jpg/960px-WrNeustadtMilak030822.jpg"},{"name":"Neukloster Abbey","slug":"neukloster-abbey","category":"Landmark","wikipediaUrl":"https://en.wikipedia.org/wiki/Neukloster_Abbey","lat":47.8123,"lon":16.2468,"wikidataId":"Q2348621","image":"https://upload.wikimedia.org/wikipedia/commons/thumb/6/6d/WrNeustadt_Neukloster_Portal.jpg/960px-WrNeustadt_Neukloster_Portal.jpg"},{"name":"St. Peter an der Sperr","slug":"st-peter-an-der-sperr","category":"Landmark","wikipediaUrl":"https://en.wikipedia.org/wiki/St._Peter_an_der_Sperr","lat":47.81593,"lon":16.24388,"wikidataId":"Q1240489","image":"https://upload.wikimedia.org/wikipedia/commons/thumb/b/bd/Wiener_Neustadt_-_ehemalige_Klosterkirche_der_Dominikanerinnen_%281%29.JPG/960px-Wiener_Neustadt_-_ehemalige_Klosterkirche_der_Dominikanerinnen_%281%29.JPG"},{"name":"Wiener Neustadt Hauptbahnhof","slug":"wiener-neustadt-hauptbahnhof","category":"Landmark","wikipediaUrl":"https://en.wikipedia.org/wiki/Wiener_Neustadt_Hauptbahnhof","lat":47.81166666666666,"lon":16.234166666666667,"wikidataId":"Q663815","image":"https://upload.wikimedia.org/wikipedia/commons/thumb/f/fa/WrNeustadt_Hbf_02.jpg/960px-WrNeustadt_Hbf_02.jpg"},{"name":"Arena Nova","slug":"arena-nova","category":"Landmark","wikipediaUrl":"https://en.wikipedia.org/wiki/Arena_Nova","lat":47.840975,"lon":16.254101,"wikidataId":"Q3445328","image":"https://upload.wikimedia.org/wikipedia/commons/thumb/0/0f/Arena_Nova_Wiener_Neustadt_001.jpg/960px-Arena_Nova_Wiener_Neustadt_001.jpg"},{"name":"Bad Fischau-Brunn","slug":"bad-fischau-brunn","category":"Landmark","wikipediaUrl":"https://en.wikipedia.org/wiki/Bad_Fischau-Brunn","lat":47.83333333,"lon":16.16666667,"wikidataId":"Q671253","image":"https://upload.wikimedia.org/wikipedia/commons/thumb/a/a1/Bad_Fischau_Thermalbad_Kirche.JPG/960px-Bad_Fischau_Thermalbad_Kirche.JPG"}]},{"name":"Steyr","places":[{"name":"Bummerlhaus","slug":"bummerlhaus","category":"Landmark","wikipediaUrl":"https://en.wikipedia.org/wiki/Bummerlhaus","lat":48.03888889,"lon":14.41944444,"wikidataId":"Q1004840","image":"https://upload.wikimedia.org/wikipedia/commons/thumb/5/55/Steyr_Bummerlhaus.jpg/960px-Steyr_Bummerlhaus.jpg"},{"name":"Celestine Church, Steyr","slug":"celestine-church-steyr","category":"Church","wikipediaUrl":"https://en.wikipedia.org/wiki/Celestine_Church%2C_Steyr","lat":48.0401,"lon":14.4184,"wikidataId":"Q23541619","image":"https://upload.wikimedia.org/wikipedia/commons/thumb/7/74/Steyr_Handel_Mazzetti-Promenade_3_%2801%29.JPG/960px-Steyr_Handel_Mazzetti-Promenade_3_%2801%29.JPG"},{"name":"Steyr (river)","slug":"steyr-river","category":"Landmark","wikipediaUrl":"https://en.wikipedia.org/wiki/Steyr_%28river%29","lat":48.0424,"lon":14.422,"wikidataId":"Q363991","image":"https://upload.wikimedia.org/wikipedia/commons/thumb/1/10/Hinterstoder%2C_river_Steyr.jpg/960px-Hinterstoder%2C_river_Steyr.jpg"},{"name":"Vorwärts Stadium","slug":"vorwarts-stadium","category":"Landmark","wikipediaUrl":"https://en.wikipedia.org/wiki/Vorw%C3%A4rts_Stadium","lat":48.03764167,"lon":14.41078611,"wikidataId":"Q7941978","image":"https://upload.wikimedia.org/wikipedia/commons/thumb/2/26/SK_Vorw%C3%A4rts_Steyr_gegen_FC_Red_Bull_Salzburg_%28Cup_Erste_Runde%29_20.jpg/960px-SK_Vorw%C3%A4rts_Steyr_gegen_FC_Red_Bull_Salzburg_%28Cup_Erste_Runde%29_20.jpg"},{"name":"Behamberg","slug":"behamberg","category":"Landmark","wikipediaUrl":"https://en.wikipedia.org/wiki/Behamberg","lat":48.01666667,"lon":14.46666667,"wikidataId":"Q674028","image":"https://upload.wikimedia.org/wikipedia/commons/thumb/3/3b/R%C3%B6m.kath._Pfarrkirche_Behamberg.jpg/960px-R%C3%B6m.kath._Pfarrkirche_Behamberg.jpg"},{"name":"Dietach","slug":"dietach","category":"Landmark","wikipediaUrl":"https://en.wikipedia.org/wiki/Dietach","lat":48.091944444444444,"lon":14.416111111111112,"wikidataId":"Q684587","image":"https://upload.wikimedia.org/wikipedia/commons/thumb/5/51/Dietach_Mai_2009_064.jpg/960px-Dietach_Mai_2009_064.jpg"},{"name":"Garsten","slug":"garsten","category":"Landmark","wikipediaUrl":"https://en.wikipedia.org/wiki/Garsten","lat":48.02166666666667,"lon":14.408888888888889,"wikidataId":"Q683068","image":"https://upload.wikimedia.org/wikipedia/commons/thumb/7/75/Garsten_Ehem.Klosterkirche_Am_Platzl_%2801%29.JPG/960px-Garsten_Ehem.Klosterkirche_Am_Platzl_%2801%29.JPG"},{"name":"Garsten Abbey","slug":"garsten-abbey","category":"Landmark","wikipediaUrl":"https://en.wikipedia.org/wiki/Garsten_Abbey","lat":48.01972222,"lon":14.41027778,"wikidataId":"Q2348599","image":"https://upload.wikimedia.org/wikipedia/commons/thumb/7/75/Garsten_Ehem.Klosterkirche_Am_Platzl_%2801%29.JPG/960px-Garsten_Ehem.Klosterkirche_Am_Platzl_%2801%29.JPG"},{"name":"Gleink Abbey","slug":"gleink-abbey","category":"Landmark","wikipediaUrl":"https://en.wikipedia.org/wiki/Gleink_Abbey","lat":48.0675,"lon":14.41472222,"wikidataId":"Q817067","image":"https://upload.wikimedia.org/wikipedia/commons/thumb/0/0c/Benediktinerstift_Gleink.jpg/960px-Benediktinerstift_Gleink.jpg"},{"name":"Haidershofen","slug":"haidershofen","category":"Landmark","wikipediaUrl":"https://en.wikipedia.org/wiki/Haidershofen","lat":48.06666667,"lon":14.43333333,"wikidataId":"Q673952","image":"https://upload.wikimedia.org/wikipedia/commons/thumb/b/bb/Haidershofen_%C3%9Cbersicht.jpg/960px-Haidershofen_%C3%9Cbersicht.jpg"}]}]},"azerbaijan":{"name":"Azerbaijan","cities":[{"name":"Baku","places":["Old City (Icherisheher)","Maiden Tower","Palace of the Shirvanshahs","Flame Towers (view)","Baku Boulevard","Heydar Aliyev Center","Nizami Street","Ateshgah (day trip)","Yanar Dag (day trip)","Carpet Museum"]}]},"bangladesh":{"name":"Bangladesh","cities":[{"name":"Dhaka","places":["Lalbagh Fort","Ahsan Manzil","Dhakeshwari Temple","Sadarghat","National Museum","Liberation War Museum","Old Dhaka","Curzon Hall","Ramna Park","Star Mosque"]}]},"belgium":{"name":"Belgium","cities":[{"name":"Brussels","places":["Grand Place","Atomium","Manneken Pis","Royal Palace (view)","Magritte Museum","European Quarter","Galeries Royales Saint-Hubert","Parc du Cinquantenaire","Sablon","Belgian Comic Strip Center"]},{"name":"Bruges","places":["Market Square","Belfry of Bruges","Canals of Bruges","Basilica of the Holy Blood","Groeningemuseum","Minnewater Park","Begijnhof","Chocolate Shops","Church of Our Lady","Windmills"]},{"name":"Antwerp","places":["Antwerp Central Station","Cathedral of Our Lady","MAS Museum","Rubens House","Grote Markt","Diamond District","Het Steen","Museum Plantin-Moretus","Meir","Zurenborg"]},{"name":"Gent","places":[{"name":"Church of St. Stefanus, Ghent","slug":"church-of-st-stefanus-ghent","category":"Church","wikipediaUrl":"https://en.wikipedia.org/wiki/Church_of_St._Stefanus%2C_Ghent","lat":51.060042,"lon":3.720611,"wikidataId":"Q23889483","image":"https://upload.wikimedia.org/wikipedia/commons/f/fe/Gent_Parochiekerk_Sint-Stephanus-PM_66856.jpg"},{"name":"Design Museum Gent","slug":"design-museum-gent","category":"Museum","wikipediaUrl":"https://en.wikipedia.org/wiki/Design_Museum_Gent","lat":51.055833,"lon":3.720139,"wikidataId":"Q1809071","image":"https://upload.wikimedia.org/wikipedia/commons/thumb/b/bc/Jan_Breydelstraat.jpg/960px-Jan_Breydelstraat.jpg"},{"name":"Ghent City Museum","slug":"ghent-city-museum","category":"Museum","wikipediaUrl":"https://en.wikipedia.org/wiki/Ghent_City_Museum","lat":51.043486,"lon":3.71697,"wikidataId":"Q980285","image":"https://upload.wikimedia.org/wikipedia/commons/thumb/0/0c/Gent_STAM_12-10-2010_10-33-23.JPG/960px-Gent_STAM_12-10-2010_10-33-23.JPG"},{"name":"King Albert Park, Ghent","slug":"king-albert-park-ghent","category":"Park","wikipediaUrl":"https://en.wikipedia.org/wiki/King_Albert_Park%2C_Ghent","lat":51.045833333333334,"lon":3.731666666666667,"wikidataId":"Q12012980","image":"https://upload.wikimedia.org/wikipedia/commons/thumb/1/17/Gent_-_Achtmeiplein_1.jpg/960px-Gent_-_Achtmeiplein_1.jpg"},{"name":"Museum of Fine Arts, Ghent","slug":"museum-of-fine-arts-ghent","category":"Museum","wikipediaUrl":"https://en.wikipedia.org/wiki/Museum_of_Fine_Arts%2C_Ghent","lat":51.0383,"lon":3.7238,"wikidataId":"Q2365880","image":"https://upload.wikimedia.org/wikipedia/commons/thumb/0/01/Museum_voor_schone_kunsten_gent.jpg/960px-Museum_voor_schone_kunsten_gent.jpg"},{"name":"Museum of Industry (Ghent)","slug":"museum-of-industry-ghent","category":"Museum","wikipediaUrl":"https://en.wikipedia.org/wiki/Museum_of_Industry_%28Ghent%29","lat":51.0596,"lon":3.7249,"wikidataId":"Q2245203","image":"https://upload.wikimedia.org/wikipedia/commons/thumb/1/13/M.I.A.T._6_aug_2008.JPG/960px-M.I.A.T._6_aug_2008.JPG"},{"name":"Royal Dutch Theatre (Ghent)","slug":"royal-dutch-theatre-ghent","category":"Theatre","wikipediaUrl":"https://en.wikipedia.org/wiki/Royal_Dutch_Theatre_%28Ghent%29","lat":51.0537,"lon":3.7259,"wikidataId":"Q2071468","image":"https://upload.wikimedia.org/wikipedia/commons/thumb/8/8e/NTG_24-06-2008_11-42-13.JPG/960px-NTG_24-06-2008_11-42-13.JPG"},{"name":"Saint Bavo's Cathedral, Ghent","slug":"saint-bavos-cathedral-ghent","category":"Cathedral","wikipediaUrl":"https://en.wikipedia.org/wiki/Saint_Bavo%27s_Cathedral%2C_Ghent","lat":51.053,"lon":3.727,"wikidataId":"Q938154","image":"https://upload.wikimedia.org/wikipedia/commons/thumb/7/78/Gent-Sint-Baafskathedraal_vom_Belfried_aus_gesehen.jpg/960px-Gent-Sint-Baafskathedraal_vom_Belfried_aus_gesehen.jpg"},{"name":"Saint Michael's Church, Ghent","slug":"saint-michaels-church-ghent","category":"Church","wikipediaUrl":"https://en.wikipedia.org/wiki/Saint_Michael%27s_Church%2C_Ghent","lat":51.05361111111111,"lon":3.7191666666666667,"wikidataId":"Q1317676","image":"https://upload.wikimedia.org/wikipedia/commons/thumb/4/4c/25841-Sint-Michielskerk.jpg/960px-25841-Sint-Michielskerk.jpg"},{"name":"Saint Nicholas Church, Ghent","slug":"saint-nicholas-church-ghent","category":"Church","wikipediaUrl":"https://en.wikipedia.org/wiki/Saint_Nicholas_Church%2C_Ghent","lat":51.054,"lon":3.7229,"wikidataId":"Q1841314","image":"https://upload.wikimedia.org/wikipedia/commons/thumb/e/e3/Sint-Niklaaskerk_and_the_belfry_of_Ghent_%28DSCF0229%29.jpg/960px-Sint-Niklaaskerk_and_the_belfry_of_Ghent_%28DSCF0229%29.jpg"}]},{"name":"Charleroi","places":[{"name":"Digue Square","slug":"digue-square","category":"Square","wikipediaUrl":"https://en.wikipedia.org/wiki/Digue_Square","lat":50.40954999531097,"lon":4.43810909986496,"wikidataId":"Q3390356","image":"https://upload.wikimedia.org/wikipedia/commons/thumb/e/e0/Charleroi_-_Place_de_la_Digue_-_2021-03-27_-_01.jpg/960px-Charleroi_-_Place_de_la_Digue_-_2021-03-27_-_01.jpg"},{"name":"Church of Saint-Sulpice, Jumet","slug":"church-of-saint-sulpice-jumet","category":"Church","wikipediaUrl":"https://en.wikipedia.org/wiki/Church_of_Saint-Sulpice%2C_Jumet","lat":50.450875,"lon":4.425897,"wikidataId":"Q3584505","image":"https://upload.wikimedia.org/wikipedia/commons/thumb/0/05/Jumet_-_%C3%A9glise_Saint-Sulpice_-_2019-07-13_-_01.jpg/960px-Jumet_-_%C3%A9glise_Saint-Sulpice_-_2019-07-13_-_01.jpg"},{"name":"Farciennes Castle","slug":"farciennes-castle","category":"Castle","wikipediaUrl":"https://en.wikipedia.org/wiki/Farciennes_Castle","lat":50.427,"lon":4.557,"wikidataId":"Q2969193","image":"https://upload.wikimedia.org/wikipedia/commons/thumb/a/a5/Le_ch%C3%A2teau_de_Farciennes.jpg/960px-Le_ch%C3%A2teau_de_Farciennes.jpg"},{"name":"Fontaine-l'Évêque Castle","slug":"fontaine-leveque-castle","category":"Castle","wikipediaUrl":"https://en.wikipedia.org/wiki/Fontaine-l%27%C3%89v%C3%AAque_Castle","lat":50.412,"lon":4.324,"wikidataId":"Q17346991","image":"https://upload.wikimedia.org/wikipedia/commons/thumb/0/01/Fontaine-l%27Eveque_JPG01a.jpg/960px-Fontaine-l%27Eveque_JPG01a.jpg"},{"name":"Trazegnies Castle","slug":"trazegnies-castle","category":"Castle","wikipediaUrl":"https://en.wikipedia.org/wiki/Trazegnies_Castle","lat":50.4614,"lon":4.33,"wikidataId":"Q2970839","image":"https://upload.wikimedia.org/wikipedia/commons/thumb/a/a8/Ch%C3%A2teau_de_Trazegnies_34.JPG/960px-Ch%C3%A2teau_de_Trazegnies_34.JPG"},{"name":"2016 slashing of Charleroi police officers","slug":"2016-slashing-of-charleroi-police-officers","category":"Landmark","wikipediaUrl":"https://en.wikipedia.org/wiki/2016_slashing_of_Charleroi_police_officers","lat":50.412,"lon":4.4536,"wikidataId":"Q26227828","image":"https://upload.wikimedia.org/wikipedia/commons/thumb/6/65/Charleroi_-_Tour_Bleue_-_2022-08-24_-_01.jpg/960px-Charleroi_-_Tour_Bleue_-_2022-08-24_-_01.jpg"},{"name":"Athénée Royal Vauban","slug":"athenee-royal-vauban","category":"Landmark","wikipediaUrl":"https://en.wikipedia.org/wiki/Ath%C3%A9n%C3%A9e_Royal_Vauban","lat":50.4118,"lon":4.4474,"wikidataId":"Q96372738","image":"https://upload.wikimedia.org/wikipedia/commons/thumb/b/be/Charleroi_-_Ath%C3%A9n%C3%A9e_royal_Vauban_-_fa%C3%A7ade.jpg/960px-Charleroi_-_Ath%C3%A9n%C3%A9e_royal_Vauban_-_fa%C3%A7ade.jpg"},{"name":"Battle of Charleroi","slug":"battle-of-charleroi","category":"Landmark","wikipediaUrl":"https://en.wikipedia.org/wiki/Battle_of_Charleroi","lat":50.4,"lon":4.43333333,"wikidataId":"Q860150","image":"https://upload.wikimedia.org/wikipedia/commons/thumb/7/79/Battles_of_Charleroi_and_Mons_map.png/960px-Battles_of_Charleroi_and_Mons_map.png"},{"name":"Battle of Gosselies","slug":"battle-of-gosselies","category":"Landmark","wikipediaUrl":"https://en.wikipedia.org/wiki/Battle_of_Gosselies","lat":50.4,"lon":4.433333333333334,"wikidataId":"Q16839739","image":"https://upload.wikimedia.org/wikipedia/commons/d/d3/Charleroi_-_Ferraris_map_%281770-1778%29.jpg"},{"name":"Couillet, Belgium","slug":"couillet-belgium","category":"Landmark","wikipediaUrl":"https://en.wikipedia.org/wiki/Couillet%2C_Belgium","lat":50.4,"lon":4.433333333333334,"wikidataId":"Q573179","image":"https://upload.wikimedia.org/wikipedia/commons/thumb/d/d7/Map_Couillet_in_Charleroi.svg/960px-Map_Couillet_in_Charleroi.svg.png"}]},{"name":"Liège","places":[{"name":"Ansembourg Museum","slug":"ansembourg-museum","category":"Museum","wikipediaUrl":"https://en.wikipedia.org/wiki/Ansembourg_Museum","lat":50.64698,"lon":5.58216,"wikidataId":"Q2478313","image":"https://upload.wikimedia.org/wikipedia/commons/thumb/f/f9/LIEGE_H%C3%B4tel_d%27Ansembourg_-_rue_Feronstr%C3%A9e_114_%281_-_2012%29.JPG/960px-LIEGE_H%C3%B4tel_d%27Ansembourg_-_rue_Feronstr%C3%A9e_114_%281_-_2012%29.JPG"},{"name":"Collegiate Church of St Bartholomew, Liège","slug":"collegiate-church-of-st-bartholomew-liege","category":"Church","wikipediaUrl":"https://en.wikipedia.org/wiki/Collegiate_Church_of_St_Bartholomew%2C_Li%C3%A8ge","lat":50.6479,"lon":5.5828,"wikidataId":"Q2089683","image":"https://upload.wikimedia.org/wikipedia/commons/thumb/3/3a/Eglise-liege-stbarthelemy-janvier2006.jpg/960px-Eglise-liege-stbarthelemy-janvier2006.jpg"},{"name":"Collegiate Church of St Denis, Liège","slug":"collegiate-church-of-st-denis-liege","category":"Church","wikipediaUrl":"https://en.wikipedia.org/wiki/Collegiate_Church_of_St_Denis%2C_Li%C3%A8ge","lat":50.64293611111111,"lon":5.574586111111111,"wikidataId":"Q2983954","image":"https://upload.wikimedia.org/wikipedia/commons/thumb/4/48/Jan_Weissenbruch_-_De_kerk_van_St_Denis_te_Luik.jpg/960px-Jan_Weissenbruch_-_De_kerk_van_St_Denis_te_Luik.jpg"},{"name":"Collegiate Church of St John the Evangelist, Liège","slug":"collegiate-church-of-st-john-the-evangelist-liege","category":"Church","wikipediaUrl":"https://en.wikipedia.org/wiki/Collegiate_Church_of_St_John_the_Evangelist%2C_Li%C3%A8ge","lat":50.643,"lon":5.5673,"wikidataId":"Q2983964","image":"https://upload.wikimedia.org/wikipedia/commons/thumb/0/0c/Coll%C3%A9giale_Saint-Jean-en-l%27isle_de_Li%C3%A8ge_1.jpg/960px-Coll%C3%A9giale_Saint-Jean-en-l%27isle_de_Li%C3%A8ge_1.jpg"},{"name":"Collegiate Church of the Holy Cross, Liège","slug":"collegiate-church-of-the-holy-cross-liege","category":"Church","wikipediaUrl":"https://en.wikipedia.org/wiki/Collegiate_Church_of_the_Holy_Cross%2C_Li%C3%A8ge","lat":50.6454,"lon":5.57,"wikidataId":"Q2984039","image":"https://upload.wikimedia.org/wikipedia/commons/thumb/2/23/Collegiale_St-Croix_Liege.jpg/960px-Collegiale_St-Croix_Liege.jpg"},{"name":"Liège Cathedral","slug":"liege-cathedral","category":"Cathedral","wikipediaUrl":"https://en.wikipedia.org/wiki/Li%C3%A8ge_Cathedral","lat":50.6403,"lon":5.5718,"wikidataId":"Q1573417","image":"https://upload.wikimedia.org/wikipedia/commons/thumb/7/7b/2022-08_Cath%C3%A9drale_Saint-Paul_de_Li%C3%A8ge_-_crop.jpg/960px-2022-08_Cath%C3%A9drale_Saint-Paul_de_Li%C3%A8ge_-_crop.jpg"},{"name":"Prince-Bishops' Palace (Liège)","slug":"prince-bishops-palace-liege","category":"Palace","wikipediaUrl":"https://en.wikipedia.org/wiki/Prince-Bishops%27_Palace_%28Li%C3%A8ge%29","lat":50.64611111111111,"lon":5.573333333333333,"wikidataId":"Q704698","image":"https://upload.wikimedia.org/wikipedia/commons/thumb/b/be/Palais_provincial_de_Li%C3%A8ge_%28DSCF4299%29.jpg/960px-Palais_provincial_de_Li%C3%A8ge_%28DSCF4299%29.jpg"},{"name":"Saint Lambert's Cathedral, Liège","slug":"saint-lamberts-cathedral-liege","category":"Cathedral","wikipediaUrl":"https://en.wikipedia.org/wiki/Saint_Lambert%27s_Cathedral%2C_Li%C3%A8ge","lat":50.6455,"lon":5.57404,"wikidataId":"Q1631773","image":"https://upload.wikimedia.org/wikipedia/commons/1/1b/Eglise-liege-stlambert-leloup-1735.jpg"},{"name":"St James's Church, Liège","slug":"st-jamess-church-liege","category":"Church","wikipediaUrl":"https://en.wikipedia.org/wiki/St_James%27s_Church%2C_Li%C3%A8ge","lat":50.636994,"lon":5.570428,"wikidataId":"Q3581844","image":"https://upload.wikimedia.org/wikipedia/commons/c/cc/PM_150361_B_Liege.jpg"},{"name":"St. Martin's Basilica, Liège","slug":"st-martins-basilica-liege","category":"Church","wikipediaUrl":"https://en.wikipedia.org/wiki/St._Martin%27s_Basilica%2C_Li%C3%A8ge","lat":50.64416666666666,"lon":5.563888888888889,"wikidataId":"Q2396658","image":"https://upload.wikimedia.org/wikipedia/commons/thumb/0/0d/Stmartinli%C3%A8ge.jpg/960px-Stmartinli%C3%A8ge.jpg"}]},{"name":"Anderlecht","places":[{"name":"Astrid Park","slug":"astrid-park","category":"Park","wikipediaUrl":"https://en.wikipedia.org/wiki/Astrid_Park","lat":50.83305556,"lon":4.29805556,"wikidataId":"Q3230295","image":"https://upload.wikimedia.org/wikipedia/commons/thumb/4/41/3563astridParkLake.jpg/960px-3563astridParkLake.jpg"},{"name":"Collegiate Church of St. Peter and St. Guido","slug":"collegiate-church-of-st-peter-and-st-guido","category":"Church","wikipediaUrl":"https://en.wikipedia.org/wiki/Collegiate_Church_of_St._Peter_and_St._Guido","lat":50.836666666666666,"lon":4.306111111111111,"wikidataId":"Q2638938","image":"https://upload.wikimedia.org/wikipedia/commons/thumb/0/01/Saint_Guido_Church_%2814%29.jpg/960px-Saint_Guido_Church_%2814%29.jpg"},{"name":"National Museum of the Resistance","slug":"national-museum-of-the-resistance","category":"Museum","wikipediaUrl":"https://en.wikipedia.org/wiki/National_Museum_of_the_Resistance","lat":50.839444444444446,"lon":4.328055555555555,"wikidataId":"Q6974517","image":"https://upload.wikimedia.org/wikipedia/commons/thumb/b/b8/National_Museum_of_the_Resistance3.jpg/960px-National_Museum_of_the_Resistance3.jpg"},{"name":"Sewer Museum","slug":"sewer-museum","category":"Museum","wikipediaUrl":"https://en.wikipedia.org/wiki/Sewer_Museum","lat":50.844722222222224,"lon":4.338888888888889,"wikidataId":"Q23893729","image":"https://upload.wikimedia.org/wikipedia/commons/thumb/2/2c/Anderlecht_city_gate_tollbooth_%28DSCF7492%29.jpg/960px-Anderlecht_city_gate_tollbooth_%28DSCF7492%29.jpg"},{"name":"South Tower (Brussels)","slug":"south-tower-brussels","category":"Landmark","wikipediaUrl":"https://en.wikipedia.org/wiki/South_Tower_%28Brussels%29","lat":50.83778,"lon":4.3375,"wikidataId":"Q1816400","image":"https://upload.wikimedia.org/wikipedia/commons/thumb/f/f0/Tour_du_midi.jpg/960px-Tour_du_midi.jpg"},{"name":"Square de l'Aviation","slug":"square-de-laviation","category":"Square","wikipediaUrl":"https://en.wikipedia.org/wiki/Square_de_l%27Aviation","lat":50.840833333333336,"lon":4.339722222222222,"wikidataId":"Q85076657","image":"https://upload.wikimedia.org/wikipedia/commons/thumb/8/80/Brussels%2C_Square_de_l%27Aviation_-_Monument_aux_Forains_-_April_2025.jpg/960px-Brussels%2C_Square_de_l%27Aviation_-_Monument_aux_Forains_-_April_2025.jpg"},{"name":"Brussels Parliament building","slug":"brussels-parliament-building","category":"Landmark","wikipediaUrl":"https://en.wikipedia.org/wiki/Brussels_Parliament_building","lat":50.844722222222224,"lon":4.351388888888889,"wikidataId":"Q4979796","image":"https://upload.wikimedia.org/wikipedia/commons/thumb/6/6c/Brussels_Parliament_building_%282%29.jpg/960px-Brussels_Parliament_building_%282%29.jpg"},{"name":"Brussels Shot Tower","slug":"brussels-shot-tower","category":"Landmark","wikipediaUrl":"https://en.wikipedia.org/wiki/Brussels_Shot_Tower","lat":50.84826,"lon":4.3396,"wikidataId":"Q17150694","image":"https://upload.wikimedia.org/wikipedia/commons/thumb/e/ea/Tour_%C3%A0_plomb_Bxl_01.JPG/960px-Tour_%C3%A0_plomb_Bxl_01.JPG"},{"name":"Church of Our Lady of the Chapel","slug":"church-of-our-lady-of-the-chapel","category":"Church","wikipediaUrl":"https://en.wikipedia.org/wiki/Church_of_Our_Lady_of_the_Chapel","lat":50.84166666666667,"lon":4.351111111111111,"wikidataId":"Q726984","image":"https://upload.wikimedia.org/wikipedia/commons/thumb/7/7c/Onze-Lieve-Vrouw-ter-Kapellekerk_Brussel_30-4-2017_08-20-19.JPG/960px-Onze-Lieve-Vrouw-ter-Kapellekerk_Brussel_30-4-2017_08-20-19.JPG"},{"name":"Church of St. Augustine, Forest","slug":"church-of-st-augustine-forest","category":"Church","wikipediaUrl":"https://en.wikipedia.org/wiki/Church_of_St._Augustine%2C_Forest","lat":50.81638888888889,"lon":4.336666666666666,"wikidataId":"Q3581005","image":"https://upload.wikimedia.org/wikipedia/commons/thumb/8/87/Saintt_Augustine%27s_Church.jpg/960px-Saintt_Augustine%27s_Church.jpg"}]},{"name":"Schaerbeek","places":[{"name":"Madou Plaza Tower","slug":"madou-plaza-tower","category":"Square","wikipediaUrl":"https://en.wikipedia.org/wiki/Madou_Plaza_Tower","lat":50.84944444,"lon":4.37,"wikidataId":"Q2636175","image":"https://upload.wikimedia.org/wikipedia/commons/thumb/1/10/Madou_Plaza.JPG/960px-Madou_Plaza.JPG"},{"name":"Botanical Garden of Brussels","slug":"botanical-garden-of-brussels","category":"Park","wikipediaUrl":"https://en.wikipedia.org/wiki/Botanical_Garden_of_Brussels","lat":50.855000000000004,"lon":4.365277777777777,"wikidataId":"Q739334","image":"https://upload.wikimedia.org/wikipedia/commons/thumb/1/1f/Botanical_Garden_of_Brussels_during_golden_hour_%28DSCF8171%29.jpg/960px-Botanical_Garden_of_Brussels_during_golden_hour_%28DSCF8171%29.jpg"},{"name":"Church of Our Lady of Laeken","slug":"church-of-our-lady-of-laeken","category":"Church","wikipediaUrl":"https://en.wikipedia.org/wiki/Church_of_Our_Lady_of_Laeken","lat":50.879,"lon":4.356,"wikidataId":"Q1547264","image":"https://upload.wikimedia.org/wikipedia/commons/thumb/8/8d/%C3%89glise_Notre-Dame_de_Laeken_%28DSCF1248-DSCF1251%29.jpg/960px-%C3%89glise_Notre-Dame_de_Laeken_%28DSCF1248-DSCF1251%29.jpg"},{"name":"Iris Tower","slug":"iris-tower","category":"Landmark","wikipediaUrl":"https://en.wikipedia.org/wiki/Iris_Tower","lat":50.85716,"lon":4.3615,"wikidataId":"Q64923329","image":"https://upload.wikimedia.org/wikipedia/commons/thumb/d/de/Belgique_-_Bruxelles_-_Tour_Iris_-_01.jpg/960px-Belgique_-_Bruxelles_-_Tour_Iris_-_01.jpg"},{"name":"Josaphat Park","slug":"josaphat-park","category":"Park","wikipediaUrl":"https://en.wikipedia.org/wiki/Josaphat_Park","lat":50.86222222,"lon":4.385,"wikidataId":"Q1704088","image":"https://upload.wikimedia.org/wikipedia/commons/thumb/8/81/Parc_Josaphat_%28DSCF1381%29.jpg/960px-Parc_Josaphat_%28DSCF1381%29.jpg"},{"name":"North Galaxy Towers","slug":"north-galaxy-towers","category":"Landmark","wikipediaUrl":"https://en.wikipedia.org/wiki/North_Galaxy_Towers","lat":50.86138888888889,"lon":4.359166666666666,"wikidataId":"Q2788570","image":"https://upload.wikimedia.org/wikipedia/commons/thumb/c/c0/Belgique_-_Bruxelles_-_North_Galaxy_Towers_-_00.jpg/960px-Belgique_-_Bruxelles_-_North_Galaxy_Towers_-_00.jpg"},{"name":"Proximus Towers","slug":"proximus-towers","category":"Landmark","wikipediaUrl":"https://en.wikipedia.org/wiki/Proximus_Towers","lat":50.859722222222224,"lon":4.358333333333333,"wikidataId":"Q2363386","image":"https://upload.wikimedia.org/wikipedia/commons/thumb/6/6c/Belgium_-_Brussels_-_Belgacom_Towers_-_01.jpg/960px-Belgium_-_Brussels_-_Belgacom_Towers_-_01.jpg"},{"name":"Rogier Tower","slug":"rogier-tower","category":"Landmark","wikipediaUrl":"https://en.wikipedia.org/wiki/Rogier_Tower","lat":50.85638888888889,"lon":4.359166666666666,"wikidataId":"Q2377122","image":"https://upload.wikimedia.org/wikipedia/commons/thumb/f/f7/Belgium_-_Brussels_-_Rogier_Tower_-_01.jpg/960px-Belgium_-_Brussels_-_Rogier_Tower_-_01.jpg"},{"name":"Saint Mary's Royal Church","slug":"saint-marys-royal-church","category":"Church","wikipediaUrl":"https://en.wikipedia.org/wiki/Saint_Mary%27s_Royal_Church","lat":50.85916666666667,"lon":4.368888888888889,"wikidataId":"Q3586107","image":"https://upload.wikimedia.org/wikipedia/commons/thumb/4/45/Koninklijke_Sint-Mariakerk_Schaarbeek_2011_09_01_02.jpg/960px-Koninklijke_Sint-Mariakerk_Schaarbeek_2011_09_01_02.jpg"},{"name":"Schaerbeek Beer Museum","slug":"schaerbeek-beer-museum","category":"Museum","wikipediaUrl":"https://en.wikipedia.org/wiki/Schaerbeek_Beer_Museum","lat":50.86333333333334,"lon":4.375,"wikidataId":"Q3330801","image":"https://upload.wikimedia.org/wikipedia/commons/thumb/b/bc/Mus%C3%A9e_schaerbeekois_bi%C3%A8re_902.jpg/960px-Mus%C3%A9e_schaerbeekois_bi%C3%A8re_902.jpg"}]},{"name":"Namur","places":[{"name":"St Aubin's Cathedral","slug":"st-aubins-cathedral","category":"Cathedral","wikipediaUrl":"https://en.wikipedia.org/wiki/St_Aubin%27s_Cathedral","lat":50.4646,"lon":4.8599,"wikidataId":"Q1726584","image":"https://upload.wikimedia.org/wikipedia/commons/thumb/2/25/Namur_Belgium_Cath%C3%A9drale-Saint-Aubain-02.jpg/960px-Namur_Belgium_Cath%C3%A9drale-Saint-Aubain-02.jpg"},{"name":"Dave Castle","slug":"dave-castle","category":"Castle","wikipediaUrl":"https://en.wikipedia.org/wiki/Dave_Castle","lat":50.412,"lon":4.885,"wikidataId":"Q2144587","image":"https://upload.wikimedia.org/wikipedia/commons/thumb/8/82/Dave_CH1bJPG.jpg/960px-Dave_CH1bJPG.jpg"},{"name":"Franc-Waret Castle","slug":"franc-waret-castle","category":"Castle","wikipediaUrl":"https://en.wikipedia.org/wiki/Franc-Waret_Castle","lat":50.519,"lon":4.975,"wikidataId":"Q5478217","image":"https://upload.wikimedia.org/wikipedia/commons/thumb/d/d3/Franc-Waret_CH1JPG.jpg/960px-Franc-Waret_CH1JPG.jpg"},{"name":"Battle of the Sambre (1918)","slug":"battle-of-the-sambre-1918","category":"Landmark","wikipediaUrl":"https://en.wikipedia.org/wiki/Battle_of_the_Sambre_%281918%29","lat":50.4667,"lon":4.86667,"wikidataId":"Q1345169","image":"https://upload.wikimedia.org/wikipedia/commons/thumb/4/47/George_Edmund_Butler_-The_scaling_of_the_walls_of_Le_Quesnoy.jpg/960px-George_Edmund_Butler_-The_scaling_of_the_walls_of_Le_Quesnoy.jpg"},{"name":"Belfry of Namur","slug":"belfry-of-namur","category":"Landmark","wikipediaUrl":"https://en.wikipedia.org/wiki/Belfry_of_Namur","lat":50.46388888888889,"lon":4.866944444444445,"wikidataId":"Q1884030","image":"https://upload.wikimedia.org/wikipedia/commons/thumb/c/c9/Namur_Belfry_02.JPG/960px-Namur_Belfry_02.JPG"},{"name":"Bomel","slug":"bomel","category":"Landmark","wikipediaUrl":"https://en.wikipedia.org/wiki/Bomel","lat":50.471111111111114,"lon":4.866111111111111,"wikidataId":"Q2909774","image":"https://upload.wikimedia.org/wikipedia/commons/thumb/c/c6/Abattoirs-vue-aerienne-J.Verrees-2008-1.jpg/960px-Abattoirs-vue-aerienne-J.Verrees-2008-1.jpg"},{"name":"Bouge","slug":"bouge","category":"Landmark","wikipediaUrl":"https://en.wikipedia.org/wiki/Bouge","lat":50.46666666666667,"lon":4.883333333333333,"wikidataId":"Q962053","image":"https://upload.wikimedia.org/wikipedia/commons/0/08/Point-de-vue-Bouge.gif"},{"name":"Citadel of Namur","slug":"citadel-of-namur","category":"Landmark","wikipediaUrl":"https://en.wikipedia.org/wiki/Citadel_of_Namur","lat":50.4605,"lon":4.864,"wikidataId":"Q2600730","image":"https://upload.wikimedia.org/wikipedia/commons/thumb/2/2e/Namur_JPG07.jpg/960px-Namur_JPG07.jpg"},{"name":"Diocese of Namur","slug":"diocese-of-namur","category":"Landmark","wikipediaUrl":"https://en.wikipedia.org/wiki/Diocese_of_Namur","lat":50.463583,"lon":4.859234,"wikidataId":"Q746731","image":"https://upload.wikimedia.org/wikipedia/commons/thumb/d/d1/Cath%C3%A9drale_Saint_Aubain_vue_en_hauteur.JPG/960px-Cath%C3%A9drale_Saint_Aubain_vue_en_hauteur.JPG"},{"name":"Houyoux","slug":"houyoux","category":"Landmark","wikipediaUrl":"https://en.wikipedia.org/wiki/Houyoux","lat":50.465,"lon":4.878,"wikidataId":"Q3141411","image":"https://upload.wikimedia.org/wikipedia/commons/thumb/7/7f/Saint-Servais%2C_le_Houyoux.JPg/960px-Saint-Servais%2C_le_Houyoux.JPg"}]},{"name":"Leuven","places":[{"name":"M – Museum Leuven","slug":"m-museum-leuven","category":"Museum","wikipediaUrl":"https://en.wikipedia.org/wiki/M_%E2%80%93_Museum_Leuven","lat":50.8789,"lon":4.7044,"wikidataId":"Q2362660","image":"https://upload.wikimedia.org/wikipedia/commons/thumb/8/87/MuseumM1.JPG/960px-MuseumM1.JPG"},{"name":"Saint Peter's Church, Leuven","slug":"saint-peters-church-leuven","category":"Church","wikipediaUrl":"https://en.wikipedia.org/wiki/Saint_Peter%27s_Church%2C_Leuven","lat":50.8795,"lon":4.7013,"wikidataId":"Q17722","image":"https://upload.wikimedia.org/wikipedia/commons/thumb/2/29/St._Peter%27s_Church%2C_Leuven_%28DSCF0898%29.jpg/960px-St._Peter%27s_Church%2C_Leuven_%28DSCF0898%29.jpg"},{"name":"Saint Quentin's Church","slug":"saint-quentins-church","category":"Church","wikipediaUrl":"https://en.wikipedia.org/wiki/Saint_Quentin%27s_Church","lat":50.87028,"lon":4.69861,"wikidataId":"Q2289620","image":"https://upload.wikimedia.org/wikipedia/commons/thumb/a/a5/42130_-_Belgi%C3%AB_-_Leuven_-_Sint-Kwintenkerk_-_01.JPG/960px-42130_-_Belgi%C3%AB_-_Leuven_-_Sint-Kwintenkerk_-_01.JPG"},{"name":"Sint-Donatus Park","slug":"sint-donatus-park","category":"Park","wikipediaUrl":"https://en.wikipedia.org/wiki/Sint-Donatus_Park","lat":50.875547222222224,"lon":4.702905555555556,"wikidataId":"Q2663022","image":"https://upload.wikimedia.org/wikipedia/commons/thumb/b/b8/Leuven_Sint-Donatuspark_01.jpg/960px-Leuven_Sint-Donatuspark_01.jpg"},{"name":"Haasrode Research-Park","slug":"haasrode-research-park","category":"Park","wikipediaUrl":"https://en.wikipedia.org/wiki/Haasrode_Research-Park","lat":50.84845,"lon":4.71805,"wikidataId":"Q15222482","image":"https://upload.wikimedia.org/wikipedia/commons/a/a1/Greenh1.jpg"},{"name":"Park Abbey","slug":"park-abbey","category":"Park","wikipediaUrl":"https://en.wikipedia.org/wiki/Park_Abbey","lat":50.864,"lon":4.718,"wikidataId":"Q476178","image":"https://upload.wikimedia.org/wikipedia/commons/thumb/f/f5/Abdij_van_%27t_Park_at_night.jpg/960px-Abdij_van_%27t_Park_at_night.jpg"},{"name":"Academic libraries in Leuven","slug":"academic-libraries-in-leuven","category":"Landmark","wikipediaUrl":"https://en.wikipedia.org/wiki/Academic_libraries_in_Leuven","lat":50.878055555555555,"lon":4.7075000000000005,"wikidataId":"Q1519139","image":"https://upload.wikimedia.org/wikipedia/commons/thumb/9/95/2011-09-24_17.42_Leuven%2C_universiteitsbibliotheek_ceg74154_foto4.jpg/960px-2011-09-24_17.42_Leuven%2C_universiteitsbibliotheek_ceg74154_foto4.jpg"},{"name":"American College (Leuven)","slug":"american-college-leuven","category":"Landmark","wikipediaUrl":"https://en.wikipedia.org/wiki/American_College_%28Leuven%29","lat":50.87305555555555,"lon":4.6994444444444445,"wikidataId":"Q2005895","image":"https://upload.wikimedia.org/wikipedia/commons/thumb/0/05/American_College_Naamsestraat_Leuven.jpg/960px-American_College_Naamsestraat_Leuven.jpg"},{"name":"Arenberg Research-Park","slug":"arenberg-research-park","category":"Park","wikipediaUrl":"https://en.wikipedia.org/wiki/Arenberg_Research-Park","lat":50.865,"lon":4.669,"wikidataId":"Q4788958"},{"name":"Collegium Trilingue","slug":"collegium-trilingue","category":"Landmark","wikipediaUrl":"https://en.wikipedia.org/wiki/Collegium_Trilingue","lat":50.88111111,"lon":4.70027778,"wikidataId":"Q2946038","image":"https://upload.wikimedia.org/wikipedia/commons/thumb/4/43/Collegium_trium_linguarum_Lovaniense_anno_2010.JPG/960px-Collegium_trium_linguarum_Lovaniense_anno_2010.JPG"}]}]},"bosnia-and-herzegovina":{"name":"Bosnia and Herzegovina","cities":[{"name":"Sarajevo","places":["Baščaršija","Latin Bridge","Gazi Husrev-beg Mosque","Sebilj Fountain","Tunnel of Hope","Yellow Fortress","Sacred Heart Cathedral","War Childhood Museum","Trebević Cable Car","Vrelo Bosne"]},{"name":"Banja Luka","places":[{"name":"Cathedral of Saint Bonaventure, Banja Luka","slug":"cathedral-of-saint-bonaventure-banja-luka","category":"Cathedral","wikipediaUrl":"https://en.wikipedia.org/wiki/Cathedral_of_Saint_Bonaventure%2C_Banja_Luka","lat":44.775053,"lon":17.194939,"wikidataId":"Q785524","image":"https://upload.wikimedia.org/wikipedia/commons/thumb/a/ab/%D0%9A%D0%B0%D1%82%D0%BE%D0%BB%D0%B8%D1%87%D0%BA%D0%B0_%D1%86%D1%80%D0%BA%D0%B2%D0%B0_02_cropped.jpg/960px-%D0%9A%D0%B0%D1%82%D0%BE%D0%BB%D0%B8%D1%87%D0%BA%D0%B0_%D1%86%D1%80%D0%BA%D0%B2%D0%B0_02_cropped.jpg"},{"name":"Church of the Holy Trinity, Banja Luka","slug":"church-of-the-holy-trinity-banja-luka","category":"Church","wikipediaUrl":"https://en.wikipedia.org/wiki/Church_of_the_Holy_Trinity%2C_Banja_Luka","lat":44.77435,"lon":17.19624,"wikidataId":"Q13870923","image":"https://upload.wikimedia.org/wikipedia/commons/thumb/a/ae/Crkva_svete_trojice.JPG/960px-Crkva_svete_trojice.JPG"},{"name":"Museum of Modern Art of Republika Srpska","slug":"museum-of-modern-art-of-republika-srpska","category":"Museum","wikipediaUrl":"https://en.wikipedia.org/wiki/Museum_of_Modern_Art_of_Republika_Srpska","lat":44.7723,"lon":17.1897,"wikidataId":"Q2784755","image":"https://upload.wikimedia.org/wikipedia/commons/thumb/7/78/%D0%9C%D1%83%D0%B7%D0%B5%D1%98_%D1%81%D0%B0%D0%B2%D1%80%D0%B5%D0%BC%D0%B5%D0%BD%D0%B5_%D1%83%D0%BC%D1%98%D0%B5%D1%82%D0%BD%D0%BE%D1%81%D1%82%D0%B8_%D0%A0%D0%B5%D0%BF%D1%83%D0%B1%D0%BB%D0%B8%D0%BA%D0%B5_%D0%A1%D1%80%D0%BF%D1%81%D0%BA%D0%B5.jpg/960px-%D0%9C%D1%83%D0%B7%D0%B5%D1%98_%D1%81%D0%B0%D0%B2%D1%80%D0%B5%D0%BC%D0%B5%D0%BD%D0%B5_%D1%83%D0%BC%D1%98%D0%B5%D1%82%D0%BD%D0%BE%D1%81%D1%82%D0%B8_%D0%A0%D0%B5%D0%BF%D1%83%D0%B1%D0%BB%D0%B8%D0%BA%D0%B5_%D0%A1%D1%80%D0%BF%D1%81%D0%BA%D0%B5.jpg"},{"name":"Palace of the Republic, Banja Luka","slug":"palace-of-the-republic-banja-luka","category":"Palace","wikipediaUrl":"https://en.wikipedia.org/wiki/Palace_of_the_Republic%2C_Banja_Luka","lat":44.772527777777775,"lon":17.192944444444446,"wikidataId":"Q4342454","image":"https://upload.wikimedia.org/wikipedia/commons/thumb/8/81/Palata_Republike.jpg/960px-Palata_Republike.jpg"},{"name":"Arie Livne Jewish Cultural Center","slug":"arie-livne-jewish-cultural-center","category":"Landmark","wikipediaUrl":"https://en.wikipedia.org/wiki/Arie_Livne_Jewish_Cultural_Center","lat":44.767827,"lon":17.199372,"wikidataId":"Q21855559","image":"https://upload.wikimedia.org/wikipedia/commons/3/39/%C5%BDidovski_kulturni_centar_Banja_Luka.jpg"},{"name":"Banja Luka City Stadium","slug":"banja-luka-city-stadium","category":"Landmark","wikipediaUrl":"https://en.wikipedia.org/wiki/Banja_Luka_City_Stadium","lat":44.7761,"lon":17.1996,"wikidataId":"Q621027","image":"https://upload.wikimedia.org/wikipedia/commons/thumb/5/51/Gradski_stadion_Banja_Luka%2C_Septembre_2012.jpg/960px-Gradski_stadion_Banja_Luka%2C_Septembre_2012.jpg"},{"name":"Banski dvor (Banja Luka)","slug":"banski-dvor-banja-luka","category":"Landmark","wikipediaUrl":"https://en.wikipedia.org/wiki/Banski_dvor_%28Banja_Luka%29","lat":44.7731,"lon":17.1924,"wikidataId":"Q2883493","image":"https://upload.wikimedia.org/wikipedia/commons/thumb/2/25/%D0%91%D0%B0%D0%BD%D1%81%D0%BA%D0%B8_%D0%B4%D0%B2%D0%BE%D1%80_%28%D0%B3%D1%80%D0%B1%29.svg/960px-%D0%91%D0%B0%D0%BD%D1%81%D0%BA%D0%B8_%D0%B4%D0%B2%D0%BE%D1%80_%28%D0%B3%D1%80%D0%B1%29.svg.png"},{"name":"Borik, Banja Luka","slug":"borik-banja-luka","category":"Landmark","wikipediaUrl":"https://en.wikipedia.org/wiki/Borik%2C_Banja_Luka","lat":44.77,"lon":17.20472222,"wikidataId":"Q2910884","image":"https://upload.wikimedia.org/wikipedia/commons/thumb/0/08/Neboderi_u_Boriku_%28Banja_Luka%29.jpg/960px-Neboderi_u_Boriku_%28Banja_Luka%29.jpg"},{"name":"Ferhat Pasha Mosque (Banja Luka)","slug":"ferhat-pasha-mosque-banja-luka","category":"Landmark","wikipediaUrl":"https://en.wikipedia.org/wiki/Ferhat_Pasha_Mosque_%28Banja_Luka%29","lat":44.7675,"lon":17.18722222,"wikidataId":"Q1267134","image":"https://upload.wikimedia.org/wikipedia/commons/thumb/8/8d/Ferhat_Pasha_Mosque%2C_Banja_Luka_2016-2.jpg/960px-Ferhat_Pasha_Mosque%2C_Banja_Luka_2016-2.jpg"},{"name":"Incel (company)","slug":"incel-company","category":"Landmark","wikipediaUrl":"https://en.wikipedia.org/wiki/Incel_%28company%29","lat":44.77444444444444,"lon":17.226388888888888,"wikidataId":"Q25062212","image":"https://upload.wikimedia.org/wikipedia/commons/thumb/c/cd/Incelov_dimnjak_i_most.jpg/960px-Incelov_dimnjak_i_most.jpg"}]},{"name":"Zenica","places":[{"name":"Arena Zenica","slug":"arena-zenica","category":"Landmark","wikipediaUrl":"https://en.wikipedia.org/wiki/Arena_Zenica","lat":44.20222222,"lon":17.91361111,"wikidataId":"Q3441970","image":"https://upload.wikimedia.org/wikipedia/commons/thumb/6/67/Zenica_%28Arena%29.jpg/960px-Zenica_%28Arena%29.jpg"},{"name":"Bilino Polje","slug":"bilino-polje","category":"Landmark","wikipediaUrl":"https://en.wikipedia.org/wiki/Bilino_Polje","lat":44.20575,"lon":17.907083333333333,"wikidataId":"Q116973701","image":"https://upload.wikimedia.org/wikipedia/commons/thumb/d/d1/%D0%97%D0%B5%D0%BD%D0%B8%D1%86%D0%B0_-_1964_-_%D0%BF%D0%BE%D0%B3%D0%BB%D0%B5%D0%B4_%D0%BD%D0%B0_%D0%96%D0%B5%D1%99%D0%B5%D0%B7%D0%B0%D1%80%D1%83%2C_%D1%80%D0%B0%D0%B7%D0%B3%D0%BB%D0%B5%D0%B4%D0%BD%D0%B8%D1%86%D0%B0.jpg/960px-%D0%97%D0%B5%D0%BD%D0%B8%D1%86%D0%B0_-_1964_-_%D0%BF%D0%BE%D0%B3%D0%BB%D0%B5%D0%B4_%D0%BD%D0%B0_%D0%96%D0%B5%D1%99%D0%B5%D0%B7%D0%B0%D1%80%D1%83%2C_%D1%80%D0%B0%D0%B7%D0%B3%D0%BB%D0%B5%D0%B4%D0%BD%D0%B8%D1%86%D0%B0.jpg"},{"name":"Zenica Synagogue","slug":"zenica-synagogue","category":"Landmark","wikipediaUrl":"https://en.wikipedia.org/wiki/Zenica_Synagogue","lat":44.19944444444444,"lon":17.909444444444443,"wikidataId":"Q70104343","image":"https://upload.wikimedia.org/wikipedia/commons/5/5b/Zenica_2006_2.jpg"},{"name":"Zenica prison","slug":"zenica-prison","category":"Landmark","wikipediaUrl":"https://en.wikipedia.org/wiki/Zenica_prison","lat":44.193647,"lon":17.913352,"wikidataId":"Q8069086","image":"https://upload.wikimedia.org/wikipedia/commons/thumb/7/7d/%D0%97%D0%B5%D0%BD%D0%B8%D1%86%D0%B0_20190614_091150.jpg/960px-%D0%97%D0%B5%D0%BD%D0%B8%D1%86%D0%B0_20190614_091150.jpg"},{"name":"Gornji Čajdraš","slug":"gornji-cajdras","category":"Landmark","wikipediaUrl":"https://en.wikipedia.org/wiki/Gornji_%C4%8Cajdra%C5%A1","lat":44.18333333,"lon":17.86666667,"wikidataId":"Q3111328","image":"https://upload.wikimedia.org/wikipedia/commons/b/b2/%C4%8Cajdra%C5%A1-11.jpg"},{"name":"Operation Miracle (1995)","slug":"operation-miracle-1995","category":"Theatre","wikipediaUrl":"https://en.wikipedia.org/wiki/Operation_Miracle_%281995%29","lat":44.16527778,"lon":17.79166667,"wikidataId":"Q7097293"},{"name":"Ahmići","slug":"ahmici","category":"Landmark","wikipediaUrl":"https://en.wikipedia.org/wiki/Ahmi%C4%87i","lat":44.14611111,"lon":17.85333333,"wikidataId":"Q1285215","image":"https://upload.wikimedia.org/wikipedia/commons/thumb/f/fe/Ahmici_massacre.jpg/960px-Ahmici_massacre.jpg"},{"name":"Ahmići massacre","slug":"ahmici-massacre","category":"Landmark","wikipediaUrl":"https://en.wikipedia.org/wiki/Ahmi%C4%87i_massacre","lat":44.14444444,"lon":17.83916667,"wikidataId":"Q1387922","image":"https://upload.wikimedia.org/wikipedia/commons/thumb/f/fe/Ahmici_massacre.jpg/960px-Ahmici_massacre.jpg"},{"name":"Lašva","slug":"lasva","category":"Landmark","wikipediaUrl":"https://en.wikipedia.org/wiki/La%C5%A1va","lat":44.139,"lon":17.9323,"wikidataId":"Q1094469","image":"https://upload.wikimedia.org/wikipedia/commons/thumb/8/80/Travnik_07.jpg/960px-Travnik_07.jpg"},{"name":"Pojske","slug":"pojske","category":"Landmark","wikipediaUrl":"https://en.wikipedia.org/wiki/Pojske","lat":44.2433815,"lon":17.8116935,"wikidataId":"Q3393913","image":"https://upload.wikimedia.org/wikipedia/commons/0/07/Skretanje_za_Pojske.jpg"}]},{"name":"Tuzla","places":[{"name":"Cathedral of the Dormition of the Theotokos, Tuzla","slug":"cathedral-of-the-dormition-of-the-theotokos-tuzla","category":"Cathedral","wikipediaUrl":"https://en.wikipedia.org/wiki/Cathedral_of_the_Dormition_of_the_Theotokos%2C_Tuzla","lat":44.53777777777778,"lon":18.68,"wikidataId":"Q61363187","image":"https://upload.wikimedia.org/wikipedia/commons/thumb/c/cb/Crkva_Uspenja_Presvete_Bogorodice_u_Tuzli_14_%282019%29.jpg/960px-Crkva_Uspenja_Presvete_Bogorodice_u_Tuzli_14_%282019%29.jpg"},{"name":"Tuzla International Airport","slug":"tuzla-international-airport","category":"Landmark","wikipediaUrl":"https://en.wikipedia.org/wiki/Tuzla_International_Airport","lat":44.45861111,"lon":18.72472222,"wikidataId":"Q1433133","image":"https://upload.wikimedia.org/wikipedia/commons/thumb/2/28/Tuzla_International_Airport.jpg/960px-Tuzla_International_Airport.jpg"},{"name":"25 May 1995 Tuzla massacre","slug":"25-may-1995-tuzla-massacre","category":"Landmark","wikipediaUrl":"https://en.wikipedia.org/wiki/25_May_1995_Tuzla_massacre","lat":44.53805556,"lon":18.67611111,"wikidataId":"Q2097350","image":"https://upload.wikimedia.org/wikipedia/commons/4/49/Tuzla%2C_kapija.jpg"},{"name":"Hadži Hasan Mosque","slug":"hadzi-hasan-mosque","category":"Landmark","wikipediaUrl":"https://en.wikipedia.org/wiki/Had%C5%BEi_Hasan_Mosque","lat":44.53861111111111,"lon":18.675555555555558,"wikidataId":"Q13081992","image":"https://upload.wikimedia.org/wikipedia/commons/thumb/f/fd/Had%C5%BEi_Hasanova_%28%C4%8Car%C5%A1ijska%29_d%C5%BEamija_u_Tuzli_01.jpg/960px-Had%C5%BEi_Hasanova_%28%C4%8Car%C5%A1ijska%29_d%C5%BEamija_u_Tuzli_01.jpg"},{"name":"Jalska Mosque","slug":"jalska-mosque","category":"Landmark","wikipediaUrl":"https://en.wikipedia.org/wiki/Jalska_Mosque","lat":44.53722222222222,"lon":18.673333333333336,"wikidataId":"Q13085390","image":"https://upload.wikimedia.org/wikipedia/commons/thumb/f/f4/Tuzla_-_Jalska_d%C5%BEamija_4_%282019%29.jpg/960px-Tuzla_-_Jalska_d%C5%BEamija_4_%282019%29.jpg"},{"name":"Mosque of Atik Behram Bey","slug":"mosque-of-atik-behram-bey","category":"Landmark","wikipediaUrl":"https://en.wikipedia.org/wiki/Mosque_of_Atik_Behram_Bey","lat":44.53995,"lon":18.67357,"wikidataId":"Q13081290","image":"https://upload.wikimedia.org/wikipedia/commons/thumb/e/ee/Behram-begova_d%C5%BEamija_u_Tuzli.jpg/960px-Behram-begova_d%C5%BEamija_u_Tuzli.jpg"},{"name":"Pannonian Lakes","slug":"pannonian-lakes","category":"Landmark","wikipediaUrl":"https://en.wikipedia.org/wiki/Pannonian_Lakes","lat":44.539517,"lon":18.680567,"wikidataId":"Q7131459","image":"https://upload.wikimedia.org/wikipedia/commons/thumb/e/eb/Pannonian_Lakes%2C_Winter.jpg/960px-Pannonian_Lakes%2C_Winter.jpg"},{"name":"Tuzla retirement home fire","slug":"tuzla-retirement-home-fire","category":"Landmark","wikipediaUrl":"https://en.wikipedia.org/wiki/Tuzla_retirement_home_fire","lat":44.53472222222222,"lon":18.67888888888889,"wikidataId":"Q136720404","image":"https://upload.wikimedia.org/wikipedia/commons/thumb/9/9d/Bosnian_retirement_home.jpg/960px-Bosnian_retirement_home.jpg"},{"name":"Clinic for Pulmonary Diseases","slug":"clinic-for-pulmonary-diseases","category":"Landmark","wikipediaUrl":"https://en.wikipedia.org/wiki/Clinic_for_Pulmonary_Diseases","lat":44.528055555555554,"lon":18.705,"wikidataId":"Q23926487","image":"https://upload.wikimedia.org/wikipedia/en/8/86/Slavinovi%C4%87i_bolnica_za_plu%C4%87ne_bolesti_i_tuberkolozu.jpg"},{"name":"Soli (zemlja)","slug":"soli-zemlja","category":"Landmark","wikipediaUrl":"https://en.wikipedia.org/wiki/Soli_%28zemlja%29","lat":44.56027777777778,"lon":18.697222222222223,"wikidataId":"Q7557747","image":"https://upload.wikimedia.org/wikipedia/commons/thumb/2/28/Medieval_Bosnian_State_Expansion-en.svg/960px-Medieval_Bosnian_State_Expansion-en.svg.png"}]},{"name":"Mostar","places":[{"name":"Mostar International Airport","slug":"mostar-international-airport","category":"Landmark","wikipediaUrl":"https://en.wikipedia.org/wiki/Mostar_International_Airport","lat":43.28277778,"lon":17.84583333,"wikidataId":"Q1432098","image":"https://upload.wikimedia.org/wikipedia/commons/thumb/2/27/OMO4.jpg/960px-OMO4.jpg"},{"name":"Museum of the Old Bridge","slug":"museum-of-the-old-bridge","category":"Museum","wikipediaUrl":"https://en.wikipedia.org/wiki/Museum_of_the_Old_Bridge","lat":43.337356,"lon":17.815503,"wikidataId":"Q6941108"},{"name":"Church of St. Peter and Paul, Mostar","slug":"church-of-st-peter-and-paul-mostar","category":"Church","wikipediaUrl":"https://en.wikipedia.org/wiki/Church_of_St._Peter_and_Paul%2C_Mostar","lat":43.3379,"lon":17.8086,"wikidataId":"Q65152528","image":"https://upload.wikimedia.org/wikipedia/commons/thumb/3/3a/Bosnia_and_Herzegovina-02274_-_Catholic_Church_of_St._Peter_and_Paul_%2810481758153%29.jpg/960px-Bosnia_and_Herzegovina-02274_-_Catholic_Church_of_St._Peter_and_Paul_%2810481758153%29.jpg"},{"name":"Church of the Nativity of the Theotokos, Mostar","slug":"church-of-the-nativity-of-the-theotokos-mostar","category":"Church","wikipediaUrl":"https://en.wikipedia.org/wiki/Church_of_the_Nativity_of_the_Theotokos%2C_Mostar","lat":43.339,"lon":17.81994,"wikidataId":"Q97123795","image":"https://upload.wikimedia.org/wikipedia/commons/thumb/5/50/Stara_pravoslavna_crkva_u_Mostaru2.JPG/960px-Stara_pravoslavna_crkva_u_Mostaru2.JPG"},{"name":"Croatian National Theatre, Mostar","slug":"croatian-national-theatre-mostar","category":"Theatre","wikipediaUrl":"https://en.wikipedia.org/wiki/Croatian_National_Theatre%2C_Mostar","lat":43.344166666666666,"lon":17.806944444444444,"wikidataId":"Q1789656","image":"https://upload.wikimedia.org/wikipedia/commons/thumb/5/58/Croatian_National_Theatre_Mostar.jpg/960px-Croatian_National_Theatre_Mostar.jpg"},{"name":"Herzegovina Museum","slug":"herzegovina-museum","category":"Museum","wikipediaUrl":"https://en.wikipedia.org/wiki/Herzegovina_Museum","lat":43.33902777777778,"lon":17.816111111111113,"wikidataId":"Q2784739","image":"https://upload.wikimedia.org/wikipedia/commons/thumb/b/b3/Muzej_Hercegovine_-_panoramio.jpg/960px-Muzej_Hercegovine_-_panoramio.jpg"},{"name":"Holy Trinity Cathedral, Mostar","slug":"holy-trinity-cathedral-mostar","category":"Cathedral","wikipediaUrl":"https://en.wikipedia.org/wiki/Holy_Trinity_Cathedral%2C_Mostar","lat":43.349444444444444,"lon":17.81416666666667,"wikidataId":"Q11199006","image":"https://upload.wikimedia.org/wikipedia/commons/thumb/5/5b/Sabornihram.jpg/960px-Sabornihram.jpg"},{"name":"Mostar Cathedral","slug":"mostar-cathedral","category":"Cathedral","wikipediaUrl":"https://en.wikipedia.org/wiki/Mostar_Cathedral","lat":43.33888888888889,"lon":17.797777777777778,"wikidataId":"Q956337","image":"https://upload.wikimedia.org/wikipedia/en/thumb/8/81/St._Mary%27s_Cathedral_in_Mostar.jpg/960px-St._Mary%27s_Cathedral_in_Mostar.jpg"},{"name":"Mostar Youth Theatre","slug":"mostar-youth-theatre","category":"Theatre","wikipediaUrl":"https://en.wikipedia.org/wiki/Mostar_Youth_Theatre","lat":43.34388888888889,"lon":17.811111111111114,"wikidataId":"Q13085497","image":"https://upload.wikimedia.org/wikipedia/commons/d/db/Mostarski_teatar_mladih.jpg"},{"name":"Mostar operation","slug":"mostar-operation","category":"Theatre","wikipediaUrl":"https://en.wikipedia.org/wiki/Mostar_operation","lat":43.333333333333336,"lon":17.8,"wikidataId":"Q11147774","image":"https://upload.wikimedia.org/wikipedia/commons/thumb/f/f0/8._korpus_NOVJ_u_Mostaru%2C_februar_1945.jpg/960px-8._korpus_NOVJ_u_Mostaru%2C_februar_1945.jpg"}]},